name,altName,country,lat,lon,action,islandCrag,islandCragId
Magic Wood,Chur,Switzerland,46.568501,9.43837,map,Magic Wood,516e14ce62bfea195a006cc0
Olhava,Repoveden kansallispuisto,Finland,61.186901,26.8465,map,Olhava,516e621c62bfea195a022010
Kjugekull,Kristianstad,Sweden,56.076401,14.3644,map,Kjugekull,516e27c062bfea195a00ffb2
Albarracin,Teruel,Spain,40.387841,-1.40389,map,Albarracín,516d1ec8bdc0f71fdd0238b4
Djupviksgrottorna,Åland,Finland,60.4002,19.830601,map,Åland,516e621c62bfea195a022030
Chironico,Ticino,Switzerland,46.429199,8.8452,map,Chironico,516e14ce62bfea195a006cc1
Haukkakallio,Kotka,Finland,60.494233,26.392797,map,Haukkakallio,516e621c62bfea195a022012
Havukallio,Lahti,Finland,60.968399,25.4664,map,Havukallio,516e621c62bfea195a022014
Reventeenvuori,Lahti,Finland,60.938376,26.263289,map,Reventeenvuori,516e621c62bfea195a02201a
Kasviken,Åland,Finland,60.369801,19.931299,map,Åland,516e621c62bfea195a022030
Fågelberget,Åland,Finland,60.413799,19.8356,map,Fågelberget,516e621c62bfea195a02203f
Bas Cuvier,Fontainebleau,France,48.446301,2.63763,map,Fontainebleau,516d4ae7bdc0f71fdd03b6da
Ton Sai,Krabi,Thailand,8.01869,98.831596,map,Railay,516d85a4bdc0f71fdd051903
Hautuumaa,Vaasa,Finland,63.064899,21.730101,map,Vaasa,516e621c62bfea195a022031
Koivusaari bloc,Helsinki,Finland,60.1614,24.847601,map,Koivusaari,516e621c62bfea195a022034
"Kakarsberget, Kauhala",Espoo,Finland,60.235039,24.489727,map,Espoo,516e621c62bfea195a022036
Franchard Isatis,Fontainebleau,France,48.411098,2.59911,map,Fontainebleau,516d4ae7bdc0f71fdd03b6da
Céüse,Grenoble,France,44.49375,5.946865,map,Céüse,516d4ae8bdc0f71fdd03b6ff
Siurana,Costa Daurada,Spain,41.261517,0.94152,map,Siurana,516d1ec8bdc0f71fdd023927
Cresciano,Ticino,Switzerland,46.288898,9.00965,map,Cresciano,516e14ce62bfea195a006cc2
Rodellar - Mascún,Huesca,Spain,42.283699,-0.080148,map,Rodellar,516d1ec8bdc0f71fdd023925
Mellunmäki boulders,Helsinki,Finland,60.239201,25.124701,map,Mellunmäki,
Jaanankallio,Hyvinkää,Finland,60.617901,24.721701,map,Jaanankallio,516e621c62bfea195a022015
Focksta,Uppsala,Sweden,59.789753,17.36608,map,Focksta,516e27c062bfea195a00ffb9
Knutby,Linköping,Sweden,58.359368,15.934639,map,Knutby,516e27c062bfea195a00ffb6
E75,Lahti,Finland,61.049573,25.859425,map,E75,516e621c62bfea195a022039
Buttermilks,Bishop,USA,37.331676,-118.57677,map,Bishop,516cf537bdc0f71fdd00747e
Smith Rock State Park,Bend,"OR, USA",44.366692,-121.140996,map,Smith Rocks,516cf537bdc0f71fdd007565
Taivaskallio,Helsinki,Finland,60.219898,24.951599,map,Taivaskallio,516e621c62bfea195a022049
Halsvuori,Jyväskylä,Finland,62.3685,25.8113,map,Halsvuori,516e621c62bfea195a022026
Rosendal,Örebro,Sweden,59.409195,15.090441,map,Rosendal,516e27c062bfea195a00ffbd
Falkberget,Espoo,Finland,60.237681,24.337292,map,Falkberget,516e621c62bfea195a022011
Franchard Cuisinière,Fontainebleau,France,48.411098,2.60962,map,Fontainebleau,516d4ae7bdc0f71fdd03b6da
Hampi,Bellary,India,15.339609,76.461668,map,Hampi,516e81ca62bfea195a02beca
Hurissalo,Lappeenranta,Finland,61.5131,27.8904,map,Hurissalo,516e621c62bfea195a02203c
Niemisel,Boden,Sweden,66.030701,21.944401,map,Niemisel,516e27bf62bfea195a00ff3c
Geyikbayırı,Antalya,Turkey,36.878865,30.482297,map,Geyik Bayiri,516d86d6bdc0f71fdd05241a
28.7,Jyväskylä,Finland,62.363201,25.778999,map,28.7,516e621c62bfea195a02203d
Horse Pens 40,Birmingham,"AL, USA",33.922121,-86.308089,map,Horse Pens 40,516cf537bdc0f71fdd007548
Myllis,Espoo,Finland,60.205079,24.656145,map,Espoo,516e621c62bfea195a022036
Viitapohja,Tampere,Finland,61.653801,24.069,map,Viitapohja,516e621c62bfea195a02201b
Pinsiö,Tampere,Finland,61.524066,23.422251,map,Pinsiö,516e621c62bfea195a022032
Horseshoe Canyon Ranch,Fayetteville,"AR, USA",36.028902,-93.262952,map,Horseshoe Canyon Ranch,516cf537bdc0f71fdd007491
Fruberget,Västervik,Sweden,57.850415,16.518631,map,Västervik,516e27c062bfea195a00ffb3
Haukilahti,Helsinki,Finland,60.160099,24.764299,map,Haukilahti,516e621c62bfea195a02203e
Little Rock City,Chattanooga,"TN, USA",35.24906,-85.217919,map,Little Rock City,516cf537bdc0f71fdd007481
Castle Hill,Christchurch,New Zealand,-43.1833,171.725998,map,Castle Hill,516e681d62bfea195a02304b
Triangular lake,Svetogorsk,Russian Federation,61.109737,29.163144,map,Triangular Lake,516e753762bfea195a0285d1
Lietlahti Park,Svetogorsk,Russian Federation,61.112359,29.132566,added,Lietlahti Park,559d6ef9c75b5c07241f56e5
"Spartacus, Grande Grotta &amp; Panorama",Kalymnos,Greece,37.003899,26.943199,map,Kalymnos,516d4ae8bdc0f71fdd03b81a
Luolavuori,Turku,Finland,60.430206,22.281904,map,Luolavuori,516e621c62bfea195a022035
Lappnor,Helsinki,Finland,60.415272,26.118793,map,Lappnor,516e621c62bfea195a02203a
Hell,Trondheim,Norway,63.442663,10.946443,map,Hell,516e3f5a62bfea195a017781
Zillertal,Innsbruck,Austria,47.162601,11.8586,map,Zillertal,516ec82e91e6730000000078
Brione,Ticino,Switzerland,46.290199,8.79361,map,Brione,516e14ce62bfea195a006cc3
Luhti,Mäntsälä,Finland,60.512699,25.468,map,Luhti,516e621c62bfea195a022016
Éléphant,Fontainebleau,France,48.2938,2.59715,map,Elephant Rocks,516e681d62bfea195a023055
Hiidenkirnut,Rovaniemi,Finland,66.399418,25.461588,map,Hiidenkirnut,516e621c62bfea195a022038
Pihlajamäki,Helsinki,Finland,60.2304,25.0117,map,Pihlajamäki,516e621c62bfea195a022048
"Falkberget, Luleå",Luleå,Sweden,65.919701,22.883301,map,Falkberget,516e621c62bfea195a022011
Häller,Bohuslän,Sweden,58.429415,11.468654,map,Häller,516e27c062bfea195a010016
Roche aux Sabots,Fontainebleau,France,48.374489,2.512372,map,La Roche Aux Crocs,516e14ce62bfea195a006c90
Stanage,Peak District,United Kingdom,53.352633,-1.637607,map,Peak District,516e4e6362bfea195a01a8b2
Ågelsjön,Norrköping,Sweden,58.674439,16.121578,map,Ågelsjön,516e27bf62bfea195a00ff29
Railey Beach,Krabi,Thailand,8.011296,98.838007,map,Railay,516d85a4bdc0f71fdd051903
Rocktown,Chattanooga,"TN, USA",34.980221,-85.35244,map,Rocktown,516cf537bdc0f71fdd007485
Val Di Mello,Milan,Italy,46.251999,9.64728,map,Val Di Mello,516d677abdc0f71fdd047ad1
Rollarit,Helsinki,Finland,60.248699,25.141399,map,Rollarit,516e621c62bfea195a022017
Mosjön,Örnsköldsvik,Sweden,63.322049,18.999374,map,Mosjön,516e27c062bfea195a00ffe0
Margalef,Costa Daurada,Spain,41.284478,0.753846,map,Margalef,516d1ec8bdc0f71fdd023926
Cowell,Fayetteville,"AR, USA",35.876046,-93.124495,map,Cowell,516cf537bdc0f71fdd0074c2
Siiri,Hämeenlinna,Finland,61.008487,24.562876,map,Hämeenlinna,516e621c62bfea195a022053
Nummi,Lohja,Finland,60.3839,23.881399,map,Nummi,516e621c62bfea195a022020
Solvalla,Espoo,Finland,60.289322,24.566588,map,Solvalla,516e621c62bfea195a02202a
Sjöända,Linköping,Sweden,57.999184,16.216507,map,Sjöända,516e27bf62bfea195a00ff35
Dödlarsberget,Boden,Sweden,65.78863,20.691032,map,Dödlarsberget,516e27bf62bfea195a00ff74
Caley,Yorkshire,United Kingdom,53.897202,-1.65177,map,Caley,516e4e6362bfea195a01a8b6
Orhem,Stockholm,Sweden,59.243324,18.15178,map,Orhem,516e27c062bfea195a00ffca
Louhos,Kuusankoski,Finland,60.900173,26.647103,map,Louhos,516e621c62bfea195a022029
Lammi,Hämeenlinna,Finland,61.053176,25.005097,map,Lammi,516e14ce62bfea195a006c4c
Luohua,Oulu,Finland,64.501404,25.2323,map,Luohua,516e621c62bfea195a022044
Hönö,Göteborg,Sweden,57.698529,11.619372,map,Hönö,516e27c062bfea195a00ffb4
Välaberget,Östersund,Sweden,63.296189,13.212669,map,Välaberget,516e27bf62bfea195a00ff5d
Mustavuori,Repoveden kansallispuisto,Finland,61.295601,27.078899,map,Mustavuori,516e621c62bfea195a02201f
Rumney,Manchester,"NH, USA",43.801084,-71.806297,map,Rumney,516cf537bdc0f71fdd0074b5
Juniskär,Sundsvall,Sweden,62.300257,17.461432,map,Juniskär,516e27c062bfea195a010030
Keljonkangas,Jyväskylä,Finland,62.1912,25.7227,map,Keljonkangas,516e621c62bfea195a02205d
Brimham,Yorkshire,United Kingdom,54.078602,-1.68447,map,Brimham,516e4e6362bfea195a01a8b9
Bistaberget,Nyköping,Sweden,58.624157,16.857362,map,Bistaberget,516e27bf62bfea195a00ff37
Hopiavuori,Kustavi,Finland,60.554536,21.407268,map,Hopiavuori,516e621c62bfea195a02201d
Harbak,Trondheim,Norway,64.074751,10.043027,map,Harbak,516e3f5762bfea195a01774d
95.2,Fontainebleau,France,48.385984,2.52942,map,Fontainebleau,516d4ae7bdc0f71fdd03b6da
Berdorf,null,null,49.823809,6.348724,map,Berdorf,516dad970b3db80e37000049
Örnberget,Stockholm,Sweden,59.207491,17.881697,map,Örnberget,516e27bf62bfea195a00ff2b
The Ghost Kitchen,Kalymnos,Greece,37.033798,26.9578,map,Kalymnos,516d4ae8bdc0f71fdd03b81a
"Leavenworth, WA",Leavenworth,USA,47.596787,-120.660782,map,Leavenworth,516cf537bdc0f71fdd007488
Gorges du Verdon,Marseille,France,43.737099,6.34983,map,Gorges Du Court,516e14ce62bfea195a006c7c
Bergafjärden,Sundsvall,Sweden,62.276269,17.457619,map,Bergafjärden,516e27c062bfea195a00ffb7
Odyssey,Kalymnos,Greece,37.012901,26.9447,map,Kalymnos,516d4ae8bdc0f71fdd03b81a
Clear Creek Canyon,Denver,"CO, USA",39.7399,-105.324,map,Clear Creek Canyon,516cf537bdc0f71fdd00749f
Glendalough,Dún Laoghaire,Ireland,53.007967,-6.360586,map,Glendalough,516e81f862bfea195a02c23d
"Joe's Valley, UT",Joe&#39;s Valley,USA,39.310925,-111.169281,map,Joe's Valley,516cf537bdc0f71fdd007480
Santavuori,Seinäjoki,Finland,62.653057,22.481031,map,Santavuori,516e621c62bfea195a022050
Almscliff,Yorkshire,United Kingdom,53.936501,-1.59375,map,Almscliff,516e4e6362bfea195a01a8b3
Riistavuori,Helsinki,Finland,60.219002,24.888599,map,Riistavuori,516e621c62bfea195a022055
Arhi,Kalymnos,Greece,37.0201,26.9643,map,Kalymnos,516d4ae8bdc0f71fdd03b81a
Ringkallen,Härnösand,Sweden,62.873466,18.302536,map,Ringkallen,516e27bf62bfea195a00ff36
Hallinden,Bohuslän,Sweden,58.454985,11.532254,map,Bohuslän,516e27c062bfea195a00ffdd
Simonsberget,Nyköping,Sweden,58.645466,16.91371,map,Simonsberget,516e27bf62bfea195a00ff64
Stennäset,Falun,Sweden,60.649313,15.570885,map,Stennäset,516e27c062bfea195a00ffbe
Taljala,Hämeenlinna,Finland,61.072633,24.030694,map,Hämeenlinna,516e621c62bfea195a022053
Happy Boulders,Bishop,USA,37.416612,-118.450191,map,Bishop,516cf537bdc0f71fdd00747e
Desplomilandia,El Chorro,Spain,36.951675,-4.778495,map,Desplomilandia,516d1ec8bdc0f71fdd02393b
Kanavuori,Jyväskylä,Finland,62.243599,25.8967,map,Jyväskylä,516e621c62bfea195a022047
Camp 4,Yosemite,USA,37.74321,-119.60332,map,Camp 40,516cf537bdc0f71fdd00755a
Terradets,Lleida,Spain,42.043429,0.891056,map,Terradets,516d1ec8bdc0f71fdd02392e
Paradiset,Lofoten,Norway,68.182198,14.3344,map,Paradiset,516e3f5a62bfea195a0177f5
Blåberget,Umeå,Sweden,63.926102,18.8535,map,Blåberget,516e27bf62bfea195a00ff50
Annot,Cannes,France,43.990101,6.65162,map,Annot,516d4ae8bdc0f71fdd03b723
Cala Magraner,Mallorca,Spain,39.487202,3.28594,map,Mallorca,516d1ec8bdc0f71fdd02392b
Hauktjern,Oslo,Norway,59.894534,10.884447,map,Hauktjern,516e3f5a62bfea195a017783
Gorges du Tarn,Montpellier,France,44.308157,3.249378,map,Gorges Du Court,516e14ce62bfea195a006c7c
Crazy Horse Buttress,San Kamphaeng,Thailand,18.795137,99.239006,map,Crazy Horse Buttress,516d85a3bdc0f71fdd0518f7
Ågesta,Stockholm,Sweden,59.214894,18.071866,map,Ågesta,516e27c062bfea195a00ffde
Rian,Luleå,Sweden,65.890296,22.976532,map,Rian Cornei,516d677abdc0f71fdd047bf7
Luppioberget,Tornio,Finland,66.310699,23.6126,map,Luppioberget,516e27c062bfea195a010043
Buthiers,Fontainebleau,France,48.294998,2.43639,map,Buthiers,516d4ae7bdc0f71fdd03b6fa
Apremont,Fontainebleau,France,48.436401,2.62932,map,Fontainebleau,516d4ae7bdc0f71fdd03b6da
Mäyrävuori,Tampere,Finland,61.451742,24.095035,map,Mäyrävuori,516e621c62bfea195a022054
Petit Bois,Fontainebleau,France,48.264099,2.67039,map,Fontainebleau,516d4ae7bdc0f71fdd03b6da
Gåseborg,Stockholm,Sweden,59.40172,17.762361,map,Gåseborg,516e27bf62bfea195a00ff34
Vuorivaara,Joensuu,Finland,62.541857,30.265519,map,Vuorivaara,516e621c62bfea195a022013
Fjärdhundra,Västerås,Sweden,59.792894,16.983383,map,Fjärdhundra,516e27bf62bfea195a00ff4e
Savassona,Barcelona,Spain,41.958597,2.339101,map,Savassona,516d1ec8bdc0f71fdd023a30
Sella - Central Areas,Costa Blanca,Spain,38.619701,-0.233073,map,Sella,516d1ec8bdc0f71fdd023931
Stone Fort aka Little Rock City,Chattanooga,"TN, USA",35.248015,-85.220647,map,Stone Fort,516cf537bdc0f71fdd007536
Tuolumne Meadows,Fresno,"CA, USA",37.874853,-119.351349,map,Tuolumne Meadows,516cf537bdc0f71fdd00753a
Fountainebleau,Fontainebleau,France,48.405309,2.6968,map,Fontainebleau,516d4ae7bdc0f71fdd03b6da
Svanå,Västerås,Sweden,59.779278,16.378083,map,Svanå,516e27c062bfea195a00ffd0
Crevillent,Elx / Elche,Spain,38.246809,-0.811031,map,Crevillent,516d1ec8bdc0f71fdd0239b9
North Mountain,Hueco Tanks,"TX, USA",31.923246,-106.045446,map,Hueco Tanks,516cf537bdc0f71fdd00747f
Nalkkilan släbi,Mäntsälä,Finland,60.553334,25.593081,added,Nalkkilan släbi,559df3103e3e71af3ce005fa
Lintukallio,Helsinki,Finland,60.236589,24.824499,added,Lintukallio,559df310c75b5c07241f56e6
Midskogsberget,Sundsvall,Sweden,62.306181,17.288146,added,Midskogsberget,559df3108f5678414123279c
Källberga,Uppsala,Sweden,59.85918,18.006055,map,Källberga,516e27c062bfea195a00ffc2
Margalef - Zona del pantano,Costa Daurada,Spain,41.297542,0.774364,map,Margalef,516d1ec8bdc0f71fdd023926
Djupfjord,Lofoten,Norway,68.188499,14.2242,map,Lofoten,516e3f5a62bfea195a017782
Korouoma,Kuusamo,Finland,66.155403,27.524099,added,Korouoma,559df3103e3e71af3ce005fc
Brattberget,Sundsvall,Sweden,62.329248,17.42835,map,Brattberget,516e27bf62bfea195a00ff6f
Patamankallio,Laukaa,Finland,62.498199,25.7076,added,Patamankallio,559df3103e3e71af3ce005fb
Arapiles,Tooan,Australia,-36.781242,141.721916,map,Arapiles,516d8d0fbdc0f71fdd054865
Rifle,Silt,USA,39.667914,-107.702327,map,Rifle,516cf536bdc0f71fdd007364
Hollenderan,Kvaløya,Norway,69.7276,18.5425,added,Hollenderan,559df3113e3e71af3ce005fd
Jackson Falls,Saint Louis,"MO, USA",37.503053,-88.677521,map,Jackson Falls,516cf537bdc0f71fdd0074e9
Freyr,Namur,Belgium,50.226563,4.892289,map,Freyr,516e12f362bfea195a005f74
Trollbo,Falun,Sweden,60.430375,15.843186,map,Trollbo,516e27c062bfea195a00ffc1
Åkers styckebruk,Stockholm,Sweden,59.238954,17.072679,added,Åkers styckebruk,559df3113e3e71af3ce005fe
Chief Boulders,Squamish,Canada,49.685595,-123.147383,map,Squamish,516e206362bfea195a00c3d3
Kraft Boulders,Red Rock Canyon,USA,36.160815,-115.417986,map,Red Rock,516cf537bdc0f71fdd00759e
"Piilolampi, Hyvinkää",Hyvinkää,Finland,60.63489,24.737595,map,Piilolampi,516e621c62bfea195a022051
Tampereen hienoin kivi,Nokia,Finland,61.503813,23.212523,added,Tampereen hienoin kivi,559df3113e3e71af3ce005ff
Palkkivehmas,Hämeenlinna,Finland,61.033521,24.109484,map,Hämeenlinna,516e621c62bfea195a022053
Mt. Evans,Denver,"CO, USA",39.632267,-105.620709,added,Mt. Evans,559df3118f5678414123279d
Småbakkan,Kvaløya,Norway,69.758003,18.607,map,Småbakkan,516e3f5762bfea195a017758
Källbergahygget,Uppsala,Sweden,59.869072,18.000036,added,Källbergahygget,559df3123e3e71af3ce00600
Silvretta,Lech,Austria,46.964439,10.132141,map,Silvretta,516ec82d91e673000000004c
Martti Servo,Rovaniemi,Finland,66.380699,25.472099,added,Martti Servo,559df3123e3e71af3ce00602
Cuvier Rempart,Fontainebleau,France,48.445202,2.64652,map,Fontainebleau,516d4ae7bdc0f71fdd03b6da
Utby,Göteborg,Sweden,57.745076,12.058332,map,Utby,516e27c062bfea195a00ffb5
Näätäkivi,Jyväskylä,Finland,62.116402,25.7808,map,Jyväskylä,516e621c62bfea195a022047
Ängesbyn,Boden,Sweden,65.763626,21.987247,added,Ängesbyn,559df3123e3e71af3ce00601
Sörfjärden,Sundsvall,Sweden,62.026934,17.402902,added,Sörfjärden,559df3128f5678414123279e
Galgberget,Bohuslän,Sweden,58.409468,11.428485,map,Bohuslän,516e27c062bfea195a00ffdd
Tung Lung Chau,null,null,22.254804,114.294527,added,Tung Lung Chau,559df312c75b5c07241f56e7
Cul de Chien,Fontainebleau,France,48.376122,2.521877,map,Fontainebleau,516d4ae7bdc0f71fdd03b6da
Seglora,Borås,Sweden,57.58389,12.719679,map,Seglora,516e27bf62bfea195a00ff2f
Ihastjärvi,Mikkeli,Finland,61.7225,27.282,added,Ihastjärvi,559df3133e3e71af3ce00603
Lover's Leap,South lake tahoe,USA,38.799835,-120.136855,map,Lover's Leap,516cf536bdc0f71fdd007453
Beacon Hill,Kowloon,Hong Kong,22.346236,114.169117,map,Beacon Hill,516e80c862bfea195a02bc02
"Lincoln Lake, Mt. Evans",Denver,"CO, USA",39.616929,-105.603247,added,Lincoln Lake,559df3133e3e71af3ce00604
Solvik,Linköping,Sweden,58.308832,16.113172,map,Solvik,516e27c062bfea195a00ffdf
Eldorado Canyon,Boulder,"CO, USA",39.93192,-105.280695,map,Eldorado Canyon,516cf537bdc0f71fdd0074a2
Cala Barques,Mallorca,Spain,39.500084,3.298613,map,Mallorca,516d1ec8bdc0f71fdd02392b
Indian Creek,Rowleys Trailer Park,USA,38.065933,-109.546223,map,Indian Creek,516cf536bdc0f71fdd00736e
El Escorial,Madrid,Spain,40.593882,-4.174805,map,El Escorial,516d1ec8bdc0f71fdd0238b6
La Pedriza,Madrid,Spain,40.746217,-3.87989,map,La Pedriza,516d1ec8bdc0f71fdd02392d
Buoux,Marseille,France,43.822518,5.377768,map,Buoux,516d4ae8bdc0f71fdd03b704
Kolartorp,Stockholm,Sweden,59.169551,18.122978,map,Kolartorp,516e27c062bfea195a00ffba
Cape Collinson,null,null,22.253751,114.254991,added,Cape Collinson,559df3133e3e71af3ce00605
Sarvivuori,Jyväskylä,Finland,62.183971,25.739973,map,Jyväskylä,516e621c62bfea195a022047
Justøya,Kristiansand,Norway,58.21412,8.371304,added,Justøya,559df313c75b5c07241f56e8
Västanbäck,Östersund,Sweden,63.19935,15.462613,map,Västanbäck,516e27c062bfea195a00ffee
Jumkil,Uppsala,Sweden,59.940654,17.39934,map,Jumkil,516e27c062bfea195a010025
Brudberget,Stockholm,Sweden,59.245741,18.552046,map,Brudberget,516e27c062bfea195a00ffbb
Targasonne,Les Escaldes,Andorra,42.491341,1.971531,added,Targasonne,559df3138f5678414123279f
Viidakkokalliot,Espoo,Finland,60.202437,24.585249,map,Espoo,516e621c62bfea195a022036
Gita,Nahariyya,Israel,32.932623,35.26886,map,Gita,516e7b0862bfea195a02a7d8
Viitaniemi,Kuopio,Finland,62.901943,27.501869,added,Viitaniemi,559df3143e3e71af3ce00606
Gandia,Costa Blanca,Spain,38.984699,-0.228095,map,Gandía,516d1ec8bdc0f71fdd023938
Ersfjorden,Kvaløya,Norway,69.70362,18.600754,added,Ersfjorden,559df3143e3e71af3ce00607
Rocher Canon,Fontainebleau,France,48.462521,2.663798,map,Fontainebleau,516d4ae7bdc0f71fdd03b6da
Uusi Sipoo,Sipoo,Finland,60.311594,25.24817,map,Sipoo,516e621c62bfea195a022037
Bois Rond,Fontainebleau,France,48.390999,2.55764,map,Fontainebleau,516d4ae7bdc0f71fdd03b6da
Hultastenen,Hässleholm,Sweden,56.141186,13.991357,added,Hultastenen,559df314c75b5c07241f56e9
Kvarnby,Espoo,Finland,60.153809,24.359136,map,Kvarnby,516e621c62bfea195a022019
Lost Rocks,Klamath,USA,41.519262,-124.081231,added,Lost Rocks,559df3148f567841412327a0
"Björnblocket, Västervik",Västervik,Sweden,57.970873,16.466806,map,Västervik,516e27c062bfea195a00ffb3
Shelf Road,Colorado Springs,"CO, USA",38.622772,-105.228424,map,Shelf Road,516cf536bdc0f71fdd007370
White Mountain,Yangshuo,China,24.715465,110.52246,map,Yangshuo,516e5df862bfea195a020795
Nissedal,Oslo,Norway,59.266275,8.410343,map,Nissedal,516e3f5a62bfea195a01779c
Ten Sleep Canyon,Ten Sleep,USA,44.173094,-107.247505,map,Ten Sleep,516cf536bdc0f71fdd00736a
Aspen,Göteborg,Sweden,57.769946,12.222719,map,Aspen,516e27bf62bfea195a00ff2e
Isoniittu,Kustavi,Finland,60.525114,21.426305,map,Isoniittu,516e621c62bfea195a022025
Haukkavuori,Lappeenranta,Finland,61.485226,29.217882,added,Haukkavuori,559df3153e3e71af3ce00608
Festung Posen,Poznań,Poland,52.443743,16.935477,added,Festung Posen,559df3153e3e71af3ce00609
Cuenca - Hoz del Júcar,Cuenca,Spain,40.091369,-2.129159,map,Cuenca,516d1ec8bdc0f71fdd023929
Olberget,Gävle,Sweden,61.309336,16.807922,map,Olberget,516e27c062bfea195a010026
Gaisenjarga,Kiruna,Sweden,68.273201,19.4196,map,Gaisenjarga,516e27c062bfea195a00fff5
Kärsämäki,Turku,Finland,60.493181,22.285359,map,Kärsämäki,516e621c62bfea195a022040
Sandspollen,Oslo,Norway,59.666646,10.588653,added,Sandspollen,559df3153e3e71af3ce0060a
Klintklinten,Visby,Sweden,57.402734,18.824258,added,Klintklinten,559df3158f567841412327a1
Angelniemi,Salo,Finland,60.357102,23.032665,map,Angelniemi,516e621c62bfea195a02201c
Stem Bastensen,Lofoten,Norway,68.214401,14.217,map,Lofoten,516e3f5a62bfea195a017782
Frontales,El Chorro,Spain,36.913632,-4.759955,map,El Chorro,516d1ec8bdc0f71fdd023928
"Rödaväggen, Västervik",Västervik,Sweden,57.716206,16.593819,map,Västervik,516e27c062bfea195a00ffb3
Ketaranvuori,Nokia,Finland,61.484632,23.323496,map,Ketaranvuori,516e621c62bfea195a02201e
Wadi Rum,Al `Aqabah,Jordan,29.57663,35.419664,map,Wadi Rum,516e827e62bfea195a02c30c
Ekoberget,Stockholm,Sweden,59.32798,18.31893,map,Ekoberget,516e27bf62bfea195a00ff3d
Pallivaha,Turku,Finland,60.483848,22.276089,map,Pallivaha,516e621c62bfea195a02205b
Yonim,Nahariyya,Israel,32.923456,35.217662,map,Yonim,516e7b0862bfea195a02a7da
Shipley Glen,Yorkshire,United Kingdom,53.852046,-1.805627,added,Shipley Glen,559df315c75b5c07241f56ea
Chaos Canyon,Rocky Mountain National Park,USA,40.304927,-105.660367,added,Chaos Canyon,559df3163e3e71af3ce0060b
Makinodromo,El Chorro,Spain,36.929386,-4.774414,map,El Chorro,516d1ec8bdc0f71fdd023928
Val Masino,Milan,Italy,46.217218,9.638247,added,Val Masino,559df3163e3e71af3ce0060c
Dödskalleberget,Stockholm,Sweden,59.195757,18.407153,map,Dödskalleberget,516e27bf62bfea195a00ff45
Tahmela boulder park,Tampere,Finland,61.496738,23.710728,added,Tahmela boulder park,559df3168f567841412327a2
Ogawayama,Kōfu,Japan,35.90751,138.639565,map,Ogawayama,516e7ee262bfea195a02b663
Bafa Lake,Bafa,Turkey,37.503734,27.526245,map,Bafa Lake,516d86d6bdc0f71fdd052419
Brensholmen,Kvaløya,Norway,69.6045,18.0214,added,Brensholmen,559df3163e3e71af3ce0060d
Maple Canyon,Provo,"UT, USA",39.564081,-111.692891,map,Maple Canyon,516cf536bdc0f71fdd007366
Bor,Náchod,Czech Republic,50.486566,16.26931,map,Bor,516e769662bfea195a028c46
Rämövuori (Golfkenttä),Nokia,Finland,61.447958,23.386195,added,Rämövuori,559df316c75b5c07241f56eb
Frösöberget,Östersund,Sweden,63.189567,14.602375,added,Frösöberget,559df3173e3e71af3ce0060e
El Capitan,Yosemite,USA,37.726578,-119.63005,map,Yosemite,516cf537bdc0f71fdd007484
"Gold Bar, WA",Seattle,"WA, USA",47.843349,-121.617966,map,Gold Bar,516cf537bdc0f71fdd0074ad
Secret Garden,Kalymnos,Greece,37.050451,26.972277,map,Secret Garden,516e4e6362bfea195a01a8c8
Vuohimäki,Helsinki,Finland,60.102506,24.368469,added,Vuohimäki,559df3178f567841412327a3
Jamestown,Little Rock,"AR, USA",35.666362,-91.754816,map,Jamestown,516cf536bdc0f71fdd0073f3
Flatanger,Trondheim,Norway,64.489858,10.818615,map,Flatanger,516e3f5a62bfea195a017793
Holy Boulders,Pomona,USA,37.618311,-89.418497,map,Holy Boulders,516cf537bdc0f71fdd0074ec
Gandalfveggen,Lofoten,Norway,68.172369,14.21677,map,Lofoten,516e3f5a62bfea195a017782
Bahratal,Děčín,Czech Republic,50.883164,13.981562,map,Bahratal,516cec69bdc0f71fdd00140c
Maltatal,Spittal An Der Drau,Austria,47.038778,13.389587,map,Maltatal,516ec82e91e67300000000b1
Sundom,Vaasa,Finland,63.060909,21.576462,map,Vaasa,516e621c62bfea195a022031
Boulder City,La Jara,USA,37.361342,-106.266643,map,Boulder Canyon,516cf537bdc0f71fdd0074a1
Paavalinvuori,Jyväskylä,Finland,62.140545,25.700626,map,Jyväskylä,516e621c62bfea195a022047
"Castle rock Santa Cruz, CA",Sunnyvale,"CA, USA",37.245362,-122.111492,map,Castle Rock,516cf537bdc0f71fdd00748e
Lillgalten,Sundsvall,Sweden,62.17588,17.529931,map,Lillgalten,516e27c062bfea195a00ffd7
Huhtanen,Imatra,Finland,61.23977,28.915715,added,Huhtanen,559df3173e3e71af3ce0060f
Stalker,Vyborg,Russian Federation,60.750224,28.794119,map,Stalker,516e753762bfea195a0285d2
Liljendal,Helsinki,Finland,60.568199,26.0735,map,Liljendal,516e621c62bfea195a02203b
Meilahti,Helsinki,Finland,60.187599,24.897499,map,Meilahti,516e621c62bfea195a02204e
Ailefroide,Grenoble,France,44.888107,6.445406,map,Ailefroide,516d4ae8bdc0f71fdd03b72e
Paasivuori,Jyväskylä,Finland,62.153301,25.717699,map,Jyväskylä,516e621c62bfea195a022047
Vorgol,Lipetsk,Russian Federation,52.574211,38.351861,map,Vorgol,516e753762bfea195a0285cb
Moe's Valley,St George,"UT, USA",37.066273,-113.630197,map,Moe's Valley,516cf537bdc0f71fdd007497
Soltuna,Åland,Finland,60.386902,19.8438,map,Åland,516e621c62bfea195a022030
Lysingsbadet,Västervik,Sweden,57.739327,16.667891,map,Västervik,516e27c062bfea195a00ffb3
Sairinen,Uusikaupunki,Finland,60.763478,21.690338,added,Sairinen,559df3183e3e71af3ce00610
Håkmark,Umeå,Sweden,63.916941,20.229843,map,Håkmark,516e27c062bfea195a00ffc3
Widdop,Yorkshire,United Kingdom,53.7901,-2.1038,map,Widdop,516e4e6362bfea195a01a8dc
Mansikkakallio,Raahe,Finland,64.70689,24.510798,added,Mansikkakallio,559df3188f567841412327a4
Shek O,null,null,22.22966,114.255762,map,Shek O,516e80c962bfea195a02bc04
Jävre,Piteå,Sweden,65.136192,21.490545,map,Jävre,516e27c062bfea195a00ffec
Sailing Hawk Boulders,Durango,USA,37.308997,-107.884382,map,Sailing Hawks,516cf537bdc0f71fdd007501
Sustenpass,Lucerne,Switzerland,46.748199,8.46519,map,Sustenpass,516e14ce62bfea195a006cc4
Skevik,Stockholm,Sweden,59.342836,18.378351,map,Skevik,516e27c062bfea195a010037
Nacka Kvarn,Stockholm,Sweden,59.298106,18.149028,map,Nacka Kvarn,516e27c062bfea195a010004
Sikati cave,Kalymnos,Greece,37.059638,26.938128,map,Kalymnos,516d4ae8bdc0f71fdd03b81a
Sotunki,Helsinki,Finland,60.300999,25.1583,map,Sotunki,516e621c62bfea195a022052
Finnsvedsberget,Stockholm,Sweden,59.282101,18.33373,map,Finnsvedsberget,516e27bf62bfea195a00ff47
Little Cottonwood Canyon,Sandy,"UT, USA",40.571784,-111.772842,map,Little Cottonwood,516cf537bdc0f71fdd0074f4
Karhunulkki,Rovaniemi,Finland,66.658011,25.288725,added,Karhunulkki,559df3183e3e71af3ce00611
Lumijoki,Oulu,Finland,64.809292,25.202374,added,Lumijoki,559df3183e3e71af3ce00612
"Stankill, Ivory Tower, Kalydna &amp; Iannis",Kalymnos,Greece,37.000999,26.9424,map,Kalymnos,516d4ae8bdc0f71fdd03b81a
Arginonta,Kalymnos,Greece,37.014339,26.971395,map,Kalymnos,516d4ae8bdc0f71fdd03b81a
Fern Gully,Fort Smith,"AR, USA",35.61716,-94.007725,added,Fern Gully,559df318c75b5c07241f56ec
Murron kivi,Jyväskylä,Finland,62.254902,24.744301,map,Jyväskylä,516e621c62bfea195a022047
Kasteli &amp; Dolphin Bay,Kalymnos,Greece,37.017683,26.941284,map,Kalymnos,516d4ae8bdc0f71fdd03b81a
Andersens,Grampians,Australia,-36.890785,142.382212,map,Grampians,516d8d0fbdc0f71fdd05485a
Jurassic Park,Kalymnos,Greece,37.007025,26.947221,map,Kalymnos,516d4ae8bdc0f71fdd03b81a
Presten,Lofoten,Norway,68.183105,14.219055,map,Lofoten,516e3f5a62bfea195a017782
American Fork Canyon,Orem,"UT, USA",40.447078,-111.684424,map,American Fork,516cf537bdc0f71fdd0075a8
The Fintstone Wall,Nerang,Australia,-28.106358,153.265697,added,The Fintstone Wall,559df3193e3e71af3ce00613
Stryn,Ålesund,Norway,61.874802,6.77595,map,Stryn,516e3f5a62bfea195a017785
Chandler Park,Tulsa,"OK, USA",36.131324,-96.075611,map,Chandler Park,516cf537bdc0f71fdd0074f7
Paynes Ford,Wellington,New Zealand,-40.882156,172.813261,map,Paynes Ford,516e681d62bfea195a02305e
Källsberget,Boden,Sweden,65.639397,21.076099,map,Källsberget,516e27bf62bfea195a00ff4c
Sa Gubia,Mallorca,Spain,39.695995,2.672032,map,Sa Gubia,516d1ec8bdc0f71fdd023a1a
Moon Hill,Yangshuo,China,24.72781,110.467358,map,Yangshuo,516e5df862bfea195a020795
Lei Pi Shan,Yangshuo,China,24.70017,110.467229,map,Yangshuo,516e5df862bfea195a020795
Black Valley,Trá Lí,Ireland,51.967935,-9.714532,added,Black Valley,559df3198f567841412327a5
Osp,Trieste,Italy,45.571191,13.858112,map,Osp/misja Pec,516d880bbdc0f71fdd052fee
Sipoo,null,null,60.37009,25.267868,map,Sipoo,516e621c62bfea195a022037
Kullaberg,Helsingborg,Sweden,56.298682,12.468109,map,Kullaberg,516e27bf62bfea195a00ff30
Montserrat,Barcelona,Spain,41.591054,1.818872,map,Montserrat,516e7df162bfea195a02b223
Wichita Mountains Wildlife Refuge (WMWR),Lawton,"OK, USA",34.736428,-98.52376,added,Wichita Mountains Wildlife,559df3193e3e71af3ce00614
Tramway,Hemet,"CA, USA",33.810817,-116.647167,map,The Tramway,516cf537bdc0f71fdd007530
Jussarö,Helsinki,Finland,59.823336,23.578488,added,Jussarö,559df3193e3e71af3ce00615
Cliffbase,Split,Croatia,43.134564,16.595707,map,Cliffbase,516e59d362bfea195a01f4e4
"Blue Mountains, Australia",Katoomba,Australia,-33.637489,150.289124,map,Blue Mountains,516d8d0ebdc0f71fdd05482c
Ostaš,Wałbrzych,Poland,50.556906,16.211143,map,Ostas,516e769662bfea195a028c47
Flagstaff Mountain,Boulder,"CO, USA",40.00132,-105.299277,map,Boulder De Coll Jovell,516e7df162bfea195a02b224
"Boone, NC",Charlotte,"NC, USA",36.216441,-81.675367,map,Boone,516cf537bdc0f71fdd0074cf
Pihlajasaari,Helsinki,Finland,60.137744,24.915619,added,Pihlajasaari,559df319c75b5c07241f56ed
Felbertal,Saalfelden Am Steinernen Meer,Austria,47.16871,12.53595,map,Felbertal,516ec82e91e67300000000e8
El salto mexico,Monterrey,Mexico,25.377997,-100.170336,map,El Salto,516d1ec8bdc0f71fdd023a19
"Rumbling Bald, NC",Asheville,"NC, USA",35.444746,-82.218912,map,Rumbling Bald,516cf537bdc0f71fdd00748f
Lensberget/Grossberget,Falun,Sweden,60.870596,15.711737,,,
Kantaberg,Boden,Sweden,65.666587,20.322046,map,Kantaberg,516e27c062bfea195a010040
Adamów,Ostrowiec Świętokrzyski,Poland,51.031733,21.1622,map,Adamów,516dc233a11561924600346d
Penitente Canyon,Del Norte,USA,37.843309,-106.285841,map,Penitente Canyon,516cf536bdc0f71fdd0073cc
Batiliman,Sevastopol&#39;,Ukraine,44.420724,33.681679,map,Batiliman,516e6d8462bfea195a0259f2
Marstrand,Västervik,Sweden,57.90021,16.437901,map,Västervik,516e27c062bfea195a00ffb3
The Smoke Bluffs,Squamish,Canada,49.70604,-123.138166,map,Squamish,516e206362bfea195a00c3d3
"Central Crags, Hong Kong",null,null,22.278499,114.147155,added,Central Crags,559df3193e3e71af3ce00616
Rjukan,Oslo,Norway,59.878946,8.606415,added,Rjukan,559df3198f567841412327a6
Plateau,Rocklands,South Africa,-32.109551,19.068532,map,Rocklands,516dbb38a115619246000076
Mossy Bluff,Little Rock,"AR, USA",35.519094,-91.999125,map,Mossy Bluff,516cf537bdc0f71fdd007572
Muir Valley,Red River Gorge,USA,37.723139,-83.636442,map,Red River Gorge,516cf537bdc0f71fdd0074d2
Hakunila boulders,Helsinki,Finland,60.270901,25.1,added,Hakunila boulders,559df31a3e3e71af3ce00617
Ahoinen,Hämeenlinna,Finland,60.830502,24.320548,map,Hämeenlinna,516e621c62bfea195a022053
Cala Fuili,Cala Gonone,Italy,40.256802,9.6246,map,Cala Fuili,516d677abdc0f71fdd047acc
Ruhankallio,Riihimäki,Finland,60.785939,24.595728,added,Ruhankallio,559df31a3e3e71af3ce00618
The Roaches,Peak District,United Kingdom,53.15866,-1.992924,map,Peak District,516e4e6362bfea195a01a8b2
"Fjällbo, Utby",Göteborg,Sweden,57.743793,12.0611,added,Fjällbo,559df31a3e3e71af3ce00619
Impivaara,Turku,Finland,60.482304,22.258215,map,Impivaara,516e621c62bfea195a02204c
Presten boulders,Lofoten,Norway,68.177597,14.2102,map,Lofoten,516e3f5a62bfea195a017782
Salmiranta,Jyväskylä,Finland,62.219501,25.801399,map,Jyväskylä,516e621c62bfea195a022047
Gorge aux Châts,Fontainebleau,France,48.3997,2.51694,map,Fontainebleau,516d4ae7bdc0f71fdd03b6da
Gunnarsklint,Åland,Finland,60.347824,19.863752,map,Åland,516e621c62bfea195a022030
Lion Rock,Kowloon,Hong Kong,22.352894,114.187388,added,Lion Rock,559df31ac75b5c07241f56ee
Puumala,Lappeenranta,Finland,61.482071,28.730192,added,Puumala,559df31a8f567841412327a7
Varazze,Finale Ligure,Italy,44.390249,8.554058,map,Varazze,516d6779bdc0f71fdd047a7e
Skälefjäll,Bohuslän,Sweden,58.363544,11.474898,map,Bohuslän,516e27c062bfea195a00ffdd
Ula,Larvik,Norway,59.018979,10.178263,map,Ulassai,516d677abdc0f71fdd047b52
Örebro Klättergym,Örebro,Sweden,59.275814,15.233224,added,Örebro Klättergym,559df31a3e3e71af3ce0061a
Burbage,Peak District,United Kingdom,53.341841,-1.60637,map,Peak District,516e4e6362bfea195a01a8b2
Left Fork,Joe&#39;s Valley,USA,39.275554,-111.218247,added,Left Fork,559df31b3e3e71af3ce0061b
Valberghalvøya,Skien,Norway,58.889568,9.402298,added,Valberghalvøya,559df31b3e3e71af3ce0061c
Ylästö Boulder,Helsinki,Finland,60.290598,24.899611,added,Ylästö Boulder,559df31bc75b5c07241f56ef
Munkkiniemi,Helsinki,Finland,60.193127,24.877617,map,Munkkiniemi,516e621c62bfea195a022057
"Thakhek, Pha Tam Kam",Muang Khammouan,Lao People&#39;s Democratic Republic,17.455882,104.915957,map,Thakhek,516e810b62bfea195a02bc77
Lyngen,Tromsø,Norway,69.574898,20.2183,added,Lyngen,559df31b8f567841412327a8
The Chief,Squamish,Canada,49.683013,-123.141332,map,Squamish,516e206362bfea195a00c3d3
Vernayaz,Monthey,Switzerland,46.13298,7.033267,map,Vernayaz,516e14ce62bfea195a006cc5
Ilveskallio,Nokia,Finland,61.499753,23.260477,added,Ilveskallio,559df31b3e3e71af3ce0061d
Kamień Michniowski,Kielce,Poland,50.988746,20.864754,added,Kamień Michniowski,559df31c3e3e71af3ce0061e
Vårdberget,Södertälje,Sweden,59.041664,17.749164,map,Lilla Vårdberget,516e27bf62bfea195a00ff97
Curbar,Peak District,United Kingdom,53.270385,-1.611949,map,Curbar,516e4e6262bfea195a01a885
Stetinden,Harstad,Norway,68.164916,16.592978,added,Stetinden,559df31cc75b5c07241f56f0
Vedauwoo,Cheyenne,"WY, USA",41.240642,-105.342407,map,Vedauwoo,516cf537bdc0f71fdd0074a0
St. Léger,Avignon,France,44.212695,5.275154,added,St. Léger,559df31c8f567841412327a9
The Scalp,Dún Laoghaire,Ireland,53.218831,-6.179852,added,The Scalp,559df31c3e3e71af3ce0061f
Red Rocks - Second Pullout East,Las Vegas,"NV, USA",36.15263,-115.436348,map,Red Rock,516cf537bdc0f71fdd00759e
Forte,Jyväskylä,Finland,62.1106,25.7764,map,Fort Knox,516d8d0ebdc0f71fdd054847
Sneznik,Děčín,Czech Republic,50.794814,14.105415,map,Snezník,516e769662bfea195a028c48
Hölö skog,Södertälje,Sweden,59.036316,17.624817,added,Hölö skog,559df31c3e3e71af3ce00620
Riskeläisvuori,Kustavi,Finland,60.535126,21.371884,map,Riskeläisvuori,516e621c62bfea195a022021
Nærsnes,Oslo,Norway,59.75138,10.509882,added,Nærsnes,559df31dc75b5c07241f56f1
Peñón de Ifach,Costa Blanca,Spain,38.634602,0.075831,map,Peñon De Ifach,516d1ec8bdc0f71fdd0239d7
Killeri,Nokia,Finland,61.505215,23.354983,added,Killeri,559df31d8f567841412327aa
"Waterval Boven, South Africa",Nelspruit,South Africa,-25.640095,30.329046,added,Waterval Boven,559df31d3e3e71af3ce00621
Right Fork,Joe&#39;s Valley,USA,39.291731,-111.179066,added,Right Fork,559df31d3e3e71af3ce00622
Camarasa,Lleida,Spain,41.892119,0.88191,map,Camarasa,516d1ec8bdc0f71fdd023942
Sad Boulders,Bishop,USA,37.40671,-118.449406,map,Bishop,516cf537bdc0f71fdd00747e
McKenzie Pond,Montréal,Canada,44.30653,-74.093305,map,Mckenzie Pond,516cf537bdc0f71fdd0074b1
Hyttyskivi,Oulu,Finland,65.131374,25.856237,added,Hyttyskivi,559df31dc75b5c07241f56f2
Korpberget,Linköping,Sweden,58.088835,15.667949,map,Korpberget,516e27bf62bfea195a00ff5c
"Indian Creek, UT",Moab,USA,38.45574,-109.716339,map,Indian Creek,516cf536bdc0f71fdd00736e
Kräkiniemi,Kustavi,Finland,60.581909,21.374245,map,Kräkiniemi,516e621c62bfea195a02202c
Wanaka,null,null,-44.696969,169.13229,map,Wanaka,516e681d62bfea195a023060
Donner Summit,Reno,"NV, USA",39.317168,-120.324841,map,Donner Summit,516cf537bdc0f71fdd0074bb
TKAK,Umeå,Sweden,64.083606,19.905338,map,Tkak,516e27bf62bfea195a00ff6e
New Joe's,Joe&#39;s Valley,USA,39.307738,-111.113706,added,New Joe's,559df31e3e3e71af3ce00623
La Turbie,Nice,France,43.730871,7.403623,map,La Turbie,516d4ae8bdc0f71fdd03b70a
"Guia, Cascais",Rio de Mouro,Portugal,38.695224,-9.447317,map,Guia De Isora,516d1ec8bdc0f71fdd023a32
Pawtuckaway,Manchester,"NH, USA",43.102236,-71.171837,map,Pawtuckaway,516cf537bdc0f71fdd007493
Västerby,Pietarsaari,Finland,63.826101,22.701702,added,Västerby,559df31e8f567841412327ab
Boulder Canyon,Boulder,"CO, USA",40.005856,-105.334339,map,Boulder Canyon,516cf537bdc0f71fdd0074a1
Brody Iłżeckie,Ostrowiec Świętokrzyski,Poland,51.007922,21.171684,added,Brody Iłżeckie,559df31e3e3e71af3ce00624
Niagara Glen,Niagara Falls,Canada,43.1297,-79.057297,map,Niagara Glen,516e206362bfea195a00c3d4
"Butterfly Valley, Cat Ba, Vietnam",Haiphong,Viet Nam,20.780912,106.974201,map,Butterfly Valley,516e7d5c62bfea195a02af29
Lincoln Woods,Providence,"RI, USA",41.89723,-71.427526,map,Lincoln Woods,516cf537bdc0f71fdd007490
Tres Ponts,null,null,42.255151,1.348247,map,Tres Ponts,516d1ec8bdc0f71fdd023933
Keinukallio,Kerava,Finland,60.383284,25.132395,added,Keinukallio,559df31e3e3e71af3ce00625
Mitake,Tokorozawa,Japan,35.800655,139.182551,map,Mitake,516e7ee262bfea195a02b661
Svolværgeita,Lofoten,Norway,68.246495,14.589071,map,Lofoten,516e3f5a62bfea195a017782
Rösåsberget,Örnsköldsvik,Sweden,63.397384,18.417764,added,Rösåsberget,559df31ec75b5c07241f56f3
Pirunvaara,Kajaani,Finland,64.240175,27.629929,added,Pirunvaara,559df31e3e3e71af3ce00626
Avery Drive,Tulsa,"OK, USA",36.12609,-96.090546,added,Avery Drive,559df31f3e3e71af3ce00627
Icicle Canyon,Leavenworth,USA,47.56144,-120.68078,map,Leavenworth,516cf537bdc0f71fdd007488
Øyna,Arendal,Norway,58.505287,8.942184,added,Øyna,559df31f8f567841412327ac
Awesome Walls Dublin,Dublin,Ireland,53.401544,-6.315986,added,Awesome Walls Dublin,559df31fc75b5c07241f56f4
Kirkkonummi,Helsinki,Finland,60.07272,24.441447,added,Kirkkonummi,559df31f3e3e71af3ce00628
Eket,Helsingborg,Sweden,56.149757,12.553768,added,Eket,559df31f3e3e71af3ce00629
Newlin Creek,Colorado Springs,"CO, USA",38.266759,-105.187397,added,Newlin Creek,559df31f3e3e71af3ce0062a
Vittingsberget,Nässjö,Sweden,57.691287,14.872742,added,Vittingsberget,559df3203e3e71af3ce0062b
Gärdsås,Göteborg,Sweden,57.749061,12.052753,added,Gärdsås,559df320c75b5c07241f56f5
Oppala,Gävle,Sweden,60.76943,17.17723,map,Oppala,516e27c062bfea195a00ffd1
Urca,Rio De Janeiro,Brazil,-22.952426,-43.159189,map,Urca,516e08e562bfea195a0000c0
Champorcher,Torino,Italy,45.625683,7.631593,map,Champorcher,516d677abdc0f71fdd047bc8
Glenmalure,Dún Laoghaire,Ireland,52.955877,-6.356277,added,Glenmalure,559df3203e3e71af3ce0062c
Grøtfjordklumpan,Kvaløya,Norway,69.760498,18.518999,added,Grøtfjordklumpan,559df3203e3e71af3ce0062d
Melo,Tampere,Finland,61.462046,23.431177,added,Melo,559df3213e3e71af3ce0062e
Inkoo,Helsinki,Finland,60.009638,23.756347,map,Inkoo,516e621c62bfea195a02204a
Cocalzinho de Goiás,Anápolis,Brazil,-15.807285,-48.874466,added,Cocalzinho de Goiás,559df321c75b5c07241f56f6
The Trapps,The Gunks,USA,41.73752,-74.190869,added,The Trapps,559df3213e3e71af3ce0062f
Marna,Sundsvall,Sweden,62.270668,17.476931,map,Marna,516e27c062bfea195a010002
El Potrero Chico,Monterrey,Mexico,25.943844,-100.491257,added,El Potrero Chico,559df322c75b5c07241f56f7
Alfacar,Málaga,Spain,37.256498,-3.558669,map,Alfacar,516d1ec8bdc0f71fdd023972
Flø,Ålesund,Norway,62.418335,5.894455,map,Florianopólis,516e08e562bfea195a0000d3
Raholmen,Sundsvall,Sweden,62.35316,17.435051,map,Raholmen,516e27c062bfea195a00fffc
Brändön,Luleå,Sweden,65.678503,22.357264,map,Brändön,516e27c062bfea195a00ffda
Långaström,Kalmar,Sweden,56.639823,15.960657,added,Långaström,559df3223e3e71af3ce00630
Skönstavik,Karlskrona,Sweden,56.201667,15.60771,map,Karlskrona,516e27c062bfea195a010042
Klöverberget,Lohja,Finland,60.1898,24.250999,added,Klöverberget,559df3223e3e71af3ce00631
Gap of Dunloe,Trá Lí,Ireland,52.024402,-9.636649,added,Gap of Dunloe,559df3223e3e71af3ce00632
Maljasalmi block,Joensuu,Finland,62.675581,28.765726,added,Maljasalmi block,559df3238f567841412327ad
The Rock Garden,Del Norte,USA,37.850408,-106.292171,added,The Rock Garden,559df3233e3e71af3ce00633
Enchanted Forest,Gawler,Australia,-34.603824,139.010286,added,Enchanted Forest,559df323c75b5c07241f56f8
Brommablocken,Stockholm,Sweden,59.339668,17.939451,added,Brommablocken,559df3233e3e71af3ce00634
Koikkala,Mikkeli,Finland,61.775213,27.923212,added,Koikkala,559df3233e3e71af3ce00635
Sosnová,Česká Lípa,Czech Republic,50.653107,14.55258,added,Sosnová,559df3238f567841412327ae
Noret,Stockholm,Sweden,59.210633,18.35367,map,Noret,516e27c062bfea195a01002e
Agriliki,Marathonas,Greece,38.115634,23.950798,added,Agriliki,559df324c75b5c07241f56f9
Havran u Jitravy,Liberec,Czech Republic,50.798598,14.872141,added,Havran u Jitravy,559df3243e3e71af3ce00636
"Mt Penteli, Prasinos Vraxos",Athens,Greece,38.068551,23.907927,map,Athens,516ce980bdc0f71fdd00006b
Harju (petkelmäki),Kouvola,Finland,60.909447,26.704502,added,Harju,559df3243e3e71af3ce00637
Lost-Vegas,Svetogorsk,Russian Federation,60.998543,29.104328,map,Lost Boys,516e206362bfea195a00c3c6
Montesa,Alcoy,Spain,38.949799,-0.65227,map,Montesa,516d1ec8bdc0f71fdd023987
Ilkley,Yorkshire,United Kingdom,53.917198,-1.80282,map,Ilkley,516e4e6362bfea195a01a8ce
Bonkers,Västervik,Sweden,57.738622,16.708054,map,Västervik,516e27c062bfea195a00ffb3
Ål,Oslo,Norway,60.645989,8.623703,map,St Alban,516e206362bfea195a00c3b3
Haukankallio,Hämeenlinna,Finland,60.861861,24.713188,map,Hämeenlinna,516e621c62bfea195a022053
Eskön,Gävle,Sweden,60.791783,17.34149,map,Eskön,516e27c062bfea195a00ffce
Lorién,Vaasa,Finland,63.070721,21.574209,map,Vaasa,516e621c62bfea195a022031
Kolorado,Jyväskylä,Finland,62.206832,25.930824,map,Jyväskylä,516e621c62bfea195a022047
Hylteberget,Göteborg,Sweden,57.746908,12.110968,map,Hylteberget,516e27bf62bfea195a00ff2a
Escalera Arabe,El Chorro,Spain,36.915571,-4.749162,map,El Chorro,516d1ec8bdc0f71fdd023928
Notko,Joensuu,Finland,62.935791,29.9948,map,Notko,516e621c62bfea195a02202d
Fataga,Las Palmas De Gran Canaria,Spain,27.875121,-15.566683,map,Fataga,516d1ec8bdc0f71fdd02398f
"Mystery, Ourania &amp; Syblegades Rocks",Kalymnos,Greece,36.986,26.939199,map,Kalymnos,516d4ae8bdc0f71fdd03b81a
Ullared,Göteborg,Sweden,57.136053,12.717216,added,Ullared,559df3243e3e71af3ce00638
Hellerud,Oslo,Norway,59.911062,10.85578,map,Hellerud,516e3f5a62bfea195a01778b
Arico,Arona,Spain,28.1873,-16.520201,map,Arico,516d1ec8bdc0f71fdd023948
Säivis,Tornio,Finland,65.85041,23.668582,added,Säivis,559df324c75b5c07241f56fa
Stenarna,Skellefteå,Sweden,64.717335,20.934062,added,Stenarna,559df3243e3e71af3ce00639
Glees,Köln,Germany,50.443868,7.26604,map,Glees,516cec69bdc0f71fdd00140f
"Fallataket, Västervik",Västervik,Sweden,57.7598,16.51803,map,Västervik,516e27c062bfea195a00ffb3
Змеиная гора,Priozersk,Russian Federation,61.47996,30.216501,added,Змеиная гора,559df3253e3e71af3ce0063a
"City of Rocks, Idaho",Albion,USA,42.076852,-113.704353,map,City Of Rocks,516cf537bdc0f71fdd007579
Sundergrund,Innsbruck,Austria,47.108837,12.000031,added,Sundergrund,559df3258f567841412327af
Diabelskie Schronisko,Olsztyn,Poland,50.777395,19.229533,map,Olsztyn,516dc234a1156192460034bb
Witches Canyon,Del Norte,USA,37.837937,-106.294122,added,Witches Canyon,559df3253e3e71af3ce0063b
The Pharcyde,Monte Vista,USA,37.574685,-106.329954,added,The Pharcyde,559df325c75b5c07241f56fb
Røyken,Drammen,Norway,59.763484,10.403538,added,Røyken,559df3253e3e71af3ce0063c
Linnavuori,Imatra,Finland,61.218821,29.024677,added,Linnavuori,559df3253e3e71af3ce0063d
Viirilä,Sipoo,Finland,60.320191,25.146715,map,Sipoo,516e621c62bfea195a022037
Grönaväggen,Västervik,Sweden,57.875606,16.280065,map,Västervik,516e27c062bfea195a00ffb3
Riverboulders,Kuopio,Finland,62.838909,27.265277,added,Riverboulders,559df3263e3e71af3ce0063e
Gullknausen,Kvaløya,Norway,69.744003,18.330299,map,Gullknausen,516e3f5a62bfea195a0177cd
Skokkelvika,Lofoten,Norway,68.2024,13.9769,map,Lofoten,516e3f5a62bfea195a017782
Santa linya,Lleida,Spain,41.927298,0.799727,map,Santa Linya,516d1ec8bdc0f71fdd023936
"Mt Penteli, Iero",Athens,Greece,38.065071,23.915949,map,Athens,516ce980bdc0f71fdd00006b
Valle de Abdalajis,El Chorro,Spain,36.931301,-4.688229,map,Valle De Abdalajís,516d1ec8bdc0f71fdd023a6f
Pegalajar,Málaga,Spain,37.735766,-3.660207,added,Pegalajar,559df3268f567841412327b0
Gotthardpass,Zürich,Switzerland,46.559569,8.560152,added,Gotthardpass,559df326c75b5c07241f56fc
Juonionlahti,Varkaus,Finland,62.417724,28.211174,added,Juonionlahti,559df3263e3e71af3ce0063f
Hattula,Hämeenlinna,Finland,61.086392,24.299355,map,Hämeenlinna,516e621c62bfea195a022053
Kub,Vyborg,Russian Federation,60.646346,28.986311,map,Kub,516e753762bfea195a0285d3
"Great Barrington, Ma",Hartford,"CT, USA",42.189928,-73.35258,map,Great Barrington,516cf537bdc0f71fdd0074ae
Eggum,Lofoten,Norway,68.301697,13.7052,map,Lofoten,516e3f5a62bfea195a017782
Big Bend,Moab,USA,38.650771,-109.484524,map,Big Bend,516cf537bdc0f71fdd0074ba
Needles (California),Fresno,"CA, USA",36.109658,-118.484742,map,Needle Peak,516cf537bdc0f71fdd0074f5
Poios,Coimbra,Portugal,39.98138,-8.551342,map,Poios,516e5e3962bfea195a020b84
Bishop's Peak,Santa Maria,"CA, USA",35.301686,-120.695651,map,Santa Maria,516e08e562bfea195a000065
Ein Fara,Anata,"Palestinian Territory, Occupied",31.834746,35.300059,map,Ein Fara,516e7b0862bfea195a02a7d9
Envers des aiguilles,Chamonix,France,45.899327,6.928596,map,Chamonix,516d4ae8bdc0f71fdd03b749
Paddington,Jyväskylä,Finland,62.257599,26.0217,map,Jyväskylä,516e621c62bfea195a022047
Tjörnbroklippan,Bohuslän,Sweden,58.065893,11.730738,map,Tjörnbroklippan,516e27bf62bfea195a00ff2d
Hyttyskallio,Salo,Finland,60.362663,23.134546,map,Hyttyskallio,516e621c62bfea195a022022
Porto Colom,Mallorca,Spain,39.414082,3.271508,map,Mallorca,516d1ec8bdc0f71fdd02392b
Broughton Bluffs,Gresham,"OR, USA",45.541345,-122.378035,map,Broughton Bluff,516cf536bdc0f71fdd007471
The Flatirons,Boulder,"CO, USA",39.989254,-105.29284,map,Boulder De Coll Jovell,516e7df162bfea195a02b224
Devils tower,Devils Tower,USA,44.593034,-104.710007,map,Devils Tower,516cf536bdc0f71fdd0073d9
Skorgeura,Ålesund,Norway,62.214975,6.050325,added,Skorgeura,559df3263e3e71af3ce00640
Pianokrakken,Lofoten,Norway,68.189659,14.223003,map,Pianokrakken,516e3f5a62bfea195a0177db
Mustavuori (Tampere),Tampere,Finland,61.493471,23.60212,map,Mustavuori,516e621c62bfea195a02201f
Igelboda,Stockholm,Sweden,59.288818,18.271519,added,Igelboda,559df3273e3e71af3ce00641
Acephale,Calgary,Canada,51.037076,-115.131226,map,Acephale,516e206362bfea195a00c390
Ginzling Wald,Innsbruck,Austria,47.101299,11.8106,added,Ginzling Wald,559df327c75b5c07241f56fd
Avolouhos,Tampere,Finland,61.504949,23.543401,added,Avolouhos,559df3273e3e71af3ce00642
Lords Seat,Yorkshire,United Kingdom,54.034784,-1.872981,added,Lords Seat,559df3278f567841412327b1
Black Mountain,Hemet,"CA, USA",33.827699,-116.757988,map,Black Mountain,516cf537bdc0f71fdd007495
Norra Gryta,Västerås,Sweden,59.64502,16.534166,added,Norra Gryta,559df3273e3e71af3ce00643
"Wild Iris, Wyoming",Lander,USA,42.585255,-108.733771,map,Wild Iris,516cf536bdc0f71fdd007375
Stoney Point,Simi Valley,"CA, USA",34.273354,-118.602433,map,Stoney Point,516cf537bdc0f71fdd00749b
Dayton pocket,Chattanooga,"TN, USA",35.406961,-84.880371,map,Dayton Pocket,516cf537bdc0f71fdd0074c3
Loven,Bergen,Norway,60.873603,7.260933,map,Loven,516e3f5a62bfea195a0177a6
Montsant,Costa Daurada,Spain,41.262066,0.815735,map,Montsant,516d1ec8bdc0f71fdd023932
Little Si,Seattle,"WA, USA",47.487542,-121.75523,map,Little Si,516cf536bdc0f71fdd00737b
Hudson Mt.,Fayetteville,"AR, USA",35.849335,-93.119259,added,Hudson Mt.,559df3283e3e71af3ce00644
Hatlamminmäki,Riihimäki,Finland,60.767397,24.829714,added,Hatlamminmäki,559df3283e3e71af3ce00645
Rock Creek,Mammoth Lakes,USA,37.5457,-118.691525,map,Rock Creek,516cf537bdc0f71fdd007512
Tremadog,Wales,United Kingdom,52.943699,-4.12708,map,Walensee,516e14ce62bfea195a006c87
Long Dong,Chi-lung,"Taiwan, Province of China",25.111841,121.92274,map,Long Dong,516e809962bfea195a02bb8c
Niederthai,Innsbruck,Austria,47.119585,10.949796,added,Niederthai,559df328c75b5c07241f56fe
Pickala,Kirkkonummi,Finland,60.099836,24.323816,added,Pickala,559df3288f567841412327b2
Annot,Cannes,France,43.959882,6.682681,map,Annot,516d4ae8bdc0f71fdd03b723
Farley,null,null,null,null,map,Farley,516cf537bdc0f71fdd0074af
Ötztal,Innsbruck,Austria,47.202077,10.898094,map,Ötztal,516ec82e91e6730000000079
"Plex,",Monthey,Switzerland,46.172758,7.052332,map,Plex,516e14ce62bfea195a006cca
Chateauvert,Marseille,France,43.496207,6.037803,map,Chateauvert,516d4ae8bdc0f71fdd03b703
Fenda,Setúbal,Portugal,38.479495,-8.983619,map,Fenda,516e5e3962bfea195a020b82
El Cogul,Lleida,Spain,41.4655,0.694005,map,El Cogul,516d1ec8bdc0f71fdd0238bf
Krokviken,Sundsvall,Sweden,62.360621,17.477403,map,Krokviken,516e27c062bfea195a00ffc7
eZemvelo,Witbank,South Africa,-25.704713,28.989597,map,Ezemvelo,516dbb38a115619246000050
The Quarry,Del Norte,USA,37.644685,-106.299471,map,The Quarry,516e681d62bfea195a023056
Elephant Rocks,Del Norte,USA,37.765071,-106.31018,map,Elephant Rocks,516e681d62bfea195a023055
Big Choss,Calgary,Canada,51.116886,-115.109682,map,Big Choss,516e206362bfea195a00c3e8
Moisseenvaara,Joensuu,Finland,62.943386,30.024434,added,Moisseenvaara,559df3293e3e71af3ce00646
Strandtorp,Kalmar,Sweden,56.83194,16.596381,added,Strandtorp,559df3293e3e71af3ce00647
Dinas Rock,Swansea,United Kingdom,51.759161,-3.578238,map,Dinas Rock,516e4e6362bfea195a01a8c7
Torsebro,Kristianstad,Sweden,56.105052,14.13301,map,Torsebro,516e27c062bfea195a00fff3
Pontives,Bolzano - Bozen,Italy,46.589895,11.635723,map,Pontives,516d6779bdc0f71fdd047a8f
Koh Tao,Chumphon,Thailand,10.0892,99.8367,map,Koh Tao,516d85a4bdc0f71fdd051904
Ragnarök,Södertälje,Sweden,59.021243,17.750344,map,Ragnarök,516e27c062bfea195a010017
Roadside,Rocklands,South Africa,-32.1642,19.0368,map,Rocklands,516dbb38a115619246000076
Skytebanen,Bergen,Norway,60.370625,5.310554,map,Bergen,516cec69bdc0f71fdd00146b
Skottsund,Sundsvall,Sweden,62.289722,17.393804,map,Skottsund,516e27c062bfea195a010020
Fiby,Uppsala,Sweden,59.881508,17.364172,map,Fiby,516e27c062bfea195a00ffd4
Sumpblocket,Kalmar,Sweden,56.804979,16.594436,added,Sumpblocket,559df3298f567841412327b3
Roadcrew,Rocklands,South Africa,-32.162862,19.03008,map,Rocklands,516dbb38a115619246000076
Earl Crag,Yorkshire,United Kingdom,53.882401,-2.02436,map,Earl Crag,516e4e6362bfea195a01a8c6
Sakarkaya,Bafa,Turkey,37.495324,27.639027,map,Bafa Lake,516d86d6bdc0f71fdd052419
Filtvet kirke,Moss,Norway,59.570457,10.596045,map,Moss,516e3f5762bfea195a01776c
Käärmekallio,Helsinki,Finland,60.274371,25.093094,added,Käärmekallio,559df3293e3e71af3ce00648
Pukinmäki,Helsinki,Finland,60.248006,24.987904,added,Pukinmäki,559df3293e3e71af3ce00649
San Bartolo - Tajo Del Búho,Tarifa,Spain,36.090933,-5.720487,map,San Bartolo,516d1ec8bdc0f71fdd02396b
Keshet Cave,Nahariyya,Israel,33.07599,35.194849,added,Keshet Cave,559df3293e3e71af3ce0064a
Los Cahorros,Málaga,Spain,37.127057,-3.522508,added,Los Cahorros,559df32ac75b5c07241f56ff
Borzęta,Kraków,Poland,49.853895,19.97911,map,Borzeta,516dc233a11561924600346f
Bemböle,Espoo,Finland,60.2281,24.673201,map,Bemböle,516e621c62bfea195a02205c
Lillsjön,Norrköping,Sweden,58.659414,16.145681,map,Lillsjön,516e27c062bfea195a00ffbc
Gamlan,Åland,Finland,60.418598,19.7605,map,Åland,516e621c62bfea195a022030
Sjötorpsberget,Stockholm,Sweden,59.210756,18.163399,map,Sjötorpsberget,516e27bf62bfea195a00ff60
Rajavuori,Kuopio,Finland,62.587299,26.7248,added,Rajavuori,559df32a8f567841412327b4
Omsberget,Sundsvall,Sweden,62.3135,17.31514,map,Omsberget,516e27c062bfea195a01000a
Stora Blåmann,Kvaløya,Norway,69.734901,18.5882,added,Stora Blåmann,559df32a3e3e71af3ce0064b
Höversby,Linköping,Sweden,58.387723,16.030812,map,Höversby,516e27c062bfea195a00ffcf
"Mt Penteli, Manitari",Athens,Greece,38.063002,23.918009,map,Athens,516ce980bdc0f71fdd00006b
Grayson Highlands,Mouth Of Wilson,USA,36.623243,-81.489716,map,Grayson Highlands State Park,516cf537bdc0f71fdd0074c0
Muchówka,Nowy Sącz,Poland,49.849274,20.480061,map,Muchówka,516dc233a115619246003468
"Mt Penteli, Krisfigeto",Melíssia,Greece,38.073243,23.921884,added,Mt Penteli,559df32a3e3e71af3ce0064c
Kalle stranda,Lofoten,Norway,68.188499,14.3375,map,Lofoten,516e3f5a62bfea195a017782
Crookrise,Yorkshire,United Kingdom,53.994801,-2.01758,map,Crookrise,516e4e6362bfea195a01a8d3
Orminge,Stockholm,Sweden,59.333401,18.224499,map,Orminge,516e27c062bfea195a00ffc0
Blacksnäs,Vaasa,Finland,62.689161,21.113191,map,Vaasa,516e621c62bfea195a022031
Paklenica Gorge,Zadar,Croatia,44.30739,15.4739,added,Paklenica Gorge,559df32a3e3e71af3ce0064d
Ålsten,Stockholm,Sweden,59.318422,17.945566,map,Ålsten,516e27c062bfea195a00fffb
White Buddha,Calgary,Canada,50.866557,-114.806893,map,White Buddha,516e206362bfea195a00c3dd
Les Calanques de Marseille,Marseille,France,43.214184,5.430679,added,Les Calanques de,559df32bc75b5c07241f5700
Råsklippan,Västervik,Sweden,57.983796,16.315255,map,Råsklippan,516e27bf62bfea195a00ff71
Daone,Arco,Italy,46.000182,10.519838,map,Daone,516d6779bdc0f71fdd047aba
Doolin,Galway,Ireland,53.034039,-9.388504,added,Doolin,559df32b3e3e71af3ce0064e
The Gorge,El Chorro,Spain,36.916077,-4.772648,map,The Gorge,516d8d0fbdc0f71fdd054878
Prohibition,Fayetteville,"AR, USA",35.863457,-92.904682,added,Prohibition,559df32b3e3e71af3ce0064f
Dye,Karlstad,Sweden,59.411264,13.47147,map,Dye,516e27c062bfea195a00fff9
Piburger See,Innsbruck,Austria,47.196303,10.885112,added,Piburger See,559df32b3e3e71af3ce00650
"Fairhead, Northern Ireland",Belfast,United Kingdom,55.227901,-6.15131,added,Fairhead,559df32b8f567841412327b5
Mall Hill,Dún Laoghaire,Ireland,53.038478,-6.333168,added,Mall Hill,559df32cc75b5c07241f5701
Ewige Jagdgründe,Innsbruck,Austria,47.065752,11.752506,added,Ewige Jagdgründe,559df32c3e3e71af3ce00651
Wonderland - Enchanted Forest,Gawler,Australia,-34.598228,139.005702,added,Wonderland,559df32c3e3e71af3ce00652
Vesterøya,Sandefjord,Norway,59.054659,10.269125,map,Vesterøya,516e3f5762bfea195a01775c
Grandmother Mountain,Charlotte,"NC, USA",36.218103,-81.674595,added,Grandmother Mountain,559df32c3e3e71af3ce00653
Storön,Härnösand,Sweden,62.759441,18.206148,added,Storön,559df32dc75b5c07241f5702
Massone,Arco,Italy,45.928558,10.903587,map,Massongex,516e14ce62bfea195a006ccf
Ispoinen,Turku,Finland,60.417883,22.27021,added,Ispoinen,559df32d3e3e71af3ce00655
Svinvika,Kristiansund,Norway,62.847293,8.634825,added,Svinvika,559df32d3e3e71af3ce00654
"Mt Pinovo, Kalogeros",Notia,Greece,41.117816,22.173387,added,Mt Pinovo,559df32d8f567841412327b6
Sikhiu,Amphoe Sikhiu,Thailand,14.818034,101.581306,added,Sikhiu,559df32d3e3e71af3ce00656
Nunnanlahti,Joensuu,Finland,63.151351,29.435012,added,Nunnanlahti,559df32dc75b5c07241f5703
Shaan Kaya,Yalta,Ukraine,44.421552,34.027576,added,Shaan Kaya,559df32e3e3e71af3ce00657
Senhora da Estrela,Coimbra,Portugal,39.992731,-8.550988,map,Coimbra,516e08e562bfea195a000081
Klinten,Kalmar,Sweden,56.87778,16.706686,added,Klinten,559df32e3e3e71af3ce00658
Rymättylä,Turku,Finland,60.367671,21.949744,added,Rymättylä,559df32e3e3e71af3ce00659
The Bachelor Pad,Adelaide,Australia,-34.923921,138.705417,added,The Bachelor Pad,559df32e8f567841412327b7
Ukkokivi,Christchurch,New Zealand,-43.58312,172.722675,added,Ukkokivi,559df32ec75b5c07241f5704
Zillergrund,Innsbruck,Austria,47.122501,12.0151,added,Zillergrund,559df32f3e3e71af3ce0065a
Ravattulan Muikunvuori,Turku,Finland,60.467416,22.358759,added,Ravattulan Muikunvuori,559df32f8f567841412327b8
Valkeavuori,Turku,Finland,60.521756,22.235556,map,Valkeavuori,516e621c62bfea195a022059
Løvstien,Bergen,Norway,60.37691,5.31085,map,Bergen,516cec69bdc0f71fdd00146b
Index,Seattle,"WA, USA",47.820532,-121.557026,map,Index,516cf537bdc0f71fdd007543
Buracas Do Casmilo,Coimbra,Portugal,40.046115,-8.495956,map,Coimbra,516e08e562bfea195a000081
Kölva,Uppsala,Sweden,59.896606,17.246872,added,Kölva,559df32f3e3e71af3ce0065b
Poets &amp; Zeus,Kalymnos,Greece,36.997898,26.9403,map,Kalymnos,516d4ae8bdc0f71fdd03b81a
French's Dome,Gresham,"OR, USA",45.361795,-121.916124,map,French's Dome,516cf536bdc0f71fdd0073dd
Nockeby,Stockholm,Sweden,59.330212,17.912607,map,Nockeby,516e27c062bfea195a00ffd5
Vihersalo,Jyväskylä,Finland,61.672501,26.1644,map,Jyväskylä,516e621c62bfea195a022047
Gorges du Houx,Fontainebleau,France,48.403198,2.65453,map,Gorges Du Court,516e14ce62bfea195a006c7c
Mavrosouvala,Athens,Greece,38.251873,23.806236,map,Mavrosouvala,516ce980bdc0f71fdd00004f
Bråtö,Kokkola,Finland,63.760546,23.006777,added,Bråtö,559df32f3e3e71af3ce0065c
Las Encantadas,El Chorro,Spain,36.908622,-4.754205,map,El Chorro,516d1ec8bdc0f71fdd023928
"Central Park, New York",New York,"NY, USA",40.768712,-73.978586,map,Central Park,516cf537bdc0f71fdd007547
Riglos,Huesca,Spain,42.349899,-0.726943,map,Riglos,516d1ec8bdc0f71fdd023968
Karahonganvuori,Tampere,Finland,61.692091,24.296436,added,Karahonganvuori,559df32fc75b5c07241f5705
Östersundom,Helsinki,Finland,60.268982,25.226541,added,Östersundom,559df3303e3e71af3ce0065d
The Egg,Yangshuo,China,24.747299,110.505552,map,Yangshuo,516e5df862bfea195a020795
Little Almscliff,Yorkshire,United Kingdom,53.965737,-1.647177,added,Little Almscliff,559df3303e3e71af3ce0065e
Kebnekaise,Kiruna,Sweden,67.900645,18.517628,added,Kebnekaise,559df3308f567841412327b9
Topside,Cape Town,South Africa,-34.099048,18.450937,map,Topside,516dbb38a11561924600004a
Owl Torr,Santa Maria,"CA, USA",35.094912,-119.99077,map,Santa Maria,516e08e562bfea195a000065
Beit Arye,Lod,Israel,32.041695,35.051751,map,Lodrino,516e14ce62bfea195a006c8c
Kivilahti,Joensuu,Finland,62.980701,30.494699,added,Kivilahti,559df330c75b5c07241f5706
Tussinkoski,Tuusula,Finland,60.364599,25.065747,added,Tussinkoski,559df3303e3e71af3ce0065f
Valle dell'Orco,Torino,Italy,45.438695,7.288965,map,Valle Dell'orco,516d677abdc0f71fdd047b47
Merkenstein,Baden,Austria,47.981506,16.132895,map,Merkenstein,516ec82d91e6730000000051
Lintukymi,Kuusankoski,Finland,61.013983,26.58244,added,Lintukymi,559df3313e3e71af3ce00660
Shilat,Lod,Israel,31.900992,34.985297,map,Lodrino,516e14ce62bfea195a006c8c
Trowbarrow,Blackpool,United Kingdom,54.175856,-2.79697,map,Trowbarrow,516e4e6362bfea195a01a8c4
Tertun Telmari,Tampere,Finland,61.441476,23.424783,added,Tertun Telmari,559df3318f567841412327ba
"New River Gorge, WV",New River Gorge,USA,38.053769,-81.103283,map,New River Gorge,516cf537bdc0f71fdd0074b8
Hoya moros,Salamanca,Spain,40.330581,-5.726134,map,Hoya Moros,516d1ec8bdc0f71fdd0238b9
Malham,Manchester,United Kingdom,54.072899,-2.15806,map,Malham,516e4e6262bfea195a01a86e
Stange,Hamar,Norway,60.684242,11.29325,map,Stange,516e3f5762bfea195a01774b
Perles,Barcelona,Spain,42.178162,1.39492,map,Perles,516d1ec8bdc0f71fdd023959
Norsesund,Alingsås,Sweden,57.871236,12.452531,map,Norsesund,516e27bf62bfea195a00ff4b
Le col des Montets,Chamonix,France,46.000949,6.922438,map,Le Col Des Montets,516d4ae7bdc0f71fdd03b6fc
Urdviki,Kristiansand,Norway,58.856469,7.76013,map,Urdviki,516e3f5a62bfea195a0177aa
Larsboda,Stockholm,Sweden,59.237627,18.108113,map,Larsboda,516e27c062bfea195a00ffe1
Hideviken,Visby,Sweden,57.727298,18.869319,added,Hideviken,559df331c75b5c07241f5707
Spiegelstein,Feldkirch,Austria,47.241093,9.659724,added,Spiegelstein,559df3313e3e71af3ce00661
Irox,Kalymnos,Greece,37.016239,26.90975,map,Kalymnos,516d4ae8bdc0f71fdd03b81a
Llanberis Pass,Wales,United Kingdom,53.09,-4.04999,map,Llanberis Pass,516e4e6362bfea195a01a8ba
Ith,Hannover,Germany,51.975998,9.639988,map,Ith,516cec69bdc0f71fdd00143c
Murtoo,Nokia,Finland,61.370106,23.286293,added,Murtoo,559df3318f567841412327bb
Cala Santanyi,Mallorca,Spain,39.328156,3.147147,map,Cala Santanyi,516d1ec8bdc0f71fdd023a09
Smålinden,Bohuslän,Sweden,58.460778,11.538777,map,Smålinden,516e27bf62bfea195a00ff9f
Nezer Cave,Qiryat Shemona,Israel,33.172617,35.543432,map,Nezer Cave,516e7b0862bfea195a02a7dc
Seneca Rocks,null,null,38.834961,-79.375792,map,Seneca Rocks,516cf536bdc0f71fdd007433
Geyve,Sakarya,Turkey,40.450539,30.248752,map,Geyve,516d86d6bdc0f71fdd05241e
Stora Skramsö,Stockholm,Sweden,58.961536,18.040602,added,Stora Skramsö,559df3313e3e71af3ce00662
Farley Ledges,null,null,null,null,add,,
Prilep,Прилеп,"Macedonia, the former Yugoslav Republic of",41.371801,21.554511,map,Prilep,516e7e8d62bfea195a02b4ec
Soffabacken,Helsingborg,Sweden,56.082238,13.113556,map,Soffabacken,516e27bf62bfea195a00ff69
Straumvassbotn,Bodø,Norway,67.346603,15.6024,map,Straumvassbotn,516e3f5762bfea195a01775f
"Lover's Leap, Osage AR",Fayetteville,"AR, USA",36.247881,-93.429226,map,Lover's Leap,516cf536bdc0f71fdd007453
Blausee,Thun,Switzerland,46.532488,7.668116,map,Blausee,516e14ce62bfea195a006ccb
Skallaberg,Jönköping,Sweden,57.872137,15.029844,map,Skallaberg,516e27bf62bfea195a00ff5e
Guamka,Sochi,Russian Federation,44.231671,39.905554,map,Guamka,516e753762bfea195a0285ca
Grand Wall,Squamish,Canada,49.683568,-123.148413,map,Squamish,516e206362bfea195a00c3d3
Hatun Machay,Huaraz,Peru,-10.087727,-77.347591,map,Hatun Machay,516e7a2c62bfea195a02a511
"Zillertal, Ewige Jagdgründe",Innsbruck,Austria,47.065839,11.752228,map,Zillertal,516ec82e91e6730000000078
Zion National Park,St George,"UT, USA",37.193143,-112.983536,map,St George,516e14ce62bfea195a006cd2
Sintra,Rio de Mouro,Portugal,38.80333,-9.372711,map,Sintra,516e5e3962bfea195a020bb1
Sokoliki,Jelenia Góra,Poland,50.8699,15.8665,map,Sokoliki,516dc234a115619246003493
Blowing Rock,Charlotte,"NC, USA",36.144667,-81.702662,map,Blowing Rock,516cf537bdc0f71fdd007499
Carrot Creek,Calgary,Canada,51.155178,-115.411828,map,Carrot Creek,516e206362bfea195a00c39d
Adlitzgräben,Ternitz,Austria,47.661572,15.810135,map,Adlitzgraben,516ec82e91e673000000007a
Ettringen,Köln,Germany,50.343297,7.222438,map,Ettringen,516cec69bdc0f71fdd00143a
Prairie Creek,Calgary,Canada,50.869895,-114.811217,map,Prairie Creek,516e206362bfea195a00c398
Candelilla,Las Palmas De Gran Canaria,Spain,27.946341,-15.611358,map,La Candelilla,516d1ec8bdc0f71fdd023ace
"Jailhouse, CA",Modesto,"CA, USA",37.899053,-120.564609,map,Jailhouse,516cf536bdc0f71fdd007383
Sam's Throne,Fayetteville,"AR, USA",35.876811,-93.046303,map,Sam's Throne,516cf536bdc0f71fdd0073d0
Mogan,Las Palmas De Gran Canaria,Spain,27.909941,-15.704572,map,Mogan,516d1ec8bdc0f71fdd0238ce
Stora Sjöfallet,Kiruna,Sweden,67.486756,18.344421,added,Stora Sjöfallet,559df3313e3e71af3ce00663
Viks Kile,Tjörn,Sweden,58.049188,11.56855,map,Viks Kile,516e27bf62bfea195a00ff32
Vindön,Bohuslän,Sweden,58.30162,11.698616,map,Vindön,516e27bf62bfea195a00ff3b
"Saure, Volda",Ålesund,Norway,62.091441,6.532805,added,Saure,559df332c75b5c07241f5708
Trollevägga,Jönköping,Sweden,57.639268,15.589589,map,Trollevägga,516e27bf62bfea195a00ff78
Arboli,Costa Daurada,Spain,41.242046,0.936027,map,Arboli,516d1ec8bdc0f71fdd023939
Potrero Chico,Monterrey,Mexico,25.946314,-100.50396,map,Potrero Chico,516e3be362bfea195a016132
Offerhällan,Umeå,Sweden,64.10618,17.160816,map,Offerhällan,516e27bf62bfea195a00ff92
Satellites,Boulder,"CO, USA",39.987709,-105.290651,map,Satellites,516cf537bdc0f71fdd0074c9
Foppiano,Bern,Switzerland,46.234804,8.288434,map,Foppiano,516d6779bdc0f71fdd047aa2
Regina del Lago,Arco,Italy,45.875794,10.819671,map,Arcos,516e08e562bfea195a00007f
Hollow Mountain Cave,Grampians,Australia,-36.89187,142.381825,map,Grampians,516d8d0fbdc0f71fdd05485a
Demir Kapija,Неготино,"Macedonia, the former Yugoslav Republic of",41.412351,22.242268,map,Demir Kapija,516e7e8d62bfea195a02b4ed
Dalkey Quarry,null,null,null,null,add,,
Pine Mountain,Bakersfield,"CA, USA",34.882551,-119.172821,map,Pine Mountain,516cf537bdc0f71fdd0074b6
Foster Falls,Chattanooga,"TN, USA",35.177071,-85.673146,map,Foster Falls,516cf536bdc0f71fdd007371
"Neuhaus, Interlaken",Thun,Switzerland,46.684143,7.820442,map,Neuhaus,516e14ce62bfea195a006c3c
"Trinity Aretes, Trinity County",null,null,null,null,add,,
Bojnäs,Umeå,Sweden,63.890837,19.662879,added,Bojnäs,559df3323e3e71af3ce00664
Waipapa,Rotorua,New Zealand,-38.296286,175.684562,map,Waipapa,516e681d62bfea195a023064
"Froggatt Edge, New Zealand",Hamilton,New Zealand,-38.156279,175.522787,map,Froggatt Edge,516e681d62bfea195a02305f
Castillo de Bayuela,Talavera De La Reina,Spain,40.1064,-4.6834,map,Castillo De Bayuela,516d1ec8bdc0f71fdd023997
Vilanova de Prades,Costa Daurada,Spain,41.348673,0.95845,map,Vilanova De Meia,516d1ec8bdc0f71fdd023993
Kerimäki,null,null,null,null,add,,
Lambda,Kalymnos,Greece,37.01441,26.906723,map,Kalymnos,516d4ae8bdc0f71fdd03b81a
Ena Kasagiyama,Toyota,Japan,35.504212,137.346611,map,Toyota,516e7ee262bfea195a02b668
Karhulammen kivi,Oulu,Finland,65.247499,25.923625,added,Karhulammen kivi,559df3323e3e71af3ce00665
Petrohrad,Rakovník,Czech Republic,50.114524,13.450356,map,Petrohrad,516e769662bfea195a028c45
Simon's Seat,Yorkshire,United Kingdom,54.034153,-1.881092,added,Simon's Seat,559df3328f567841412327bc
Gorges du Verdon,Marseille,France,43.743693,6.353188,map,Gorges Du Court,516e14ce62bfea195a006c7c
Kochel,Munich,Germany,47.628843,11.335487,map,Kochel,516cec69bdc0f71fdd00143f
Välseröd,Uddevalla,Sweden,58.482546,11.45565,added,Välseröd,559df333c75b5c07241f5709
Whanganui Bay,Taupo,New Zealand,-38.784833,175.731951,map,Whanganui Bay,516e681d62bfea195a023061
Bionnassay,Chamonix,France,45.864373,6.74273,map,Bionnassay,516d4ae8bdc0f71fdd03b782
Séstret,Mallorca,Spain,39.69355,2.633923,map,Mallorca,516d1ec8bdc0f71fdd02392b
Vistamar,La Laguna,Spain,28.425906,-16.501138,map,Vistamar,516d1ec8bdc0f71fdd023a82
Casal pianos,Rio de Mouro,Portugal,38.894349,-9.438307,map,Casal Pianos,516e5e3962bfea195a020b98
Railay,Krabi,Thailand,8.008152,98.839788,map,Railay,516d85a4bdc0f71fdd051903
Redhill,Cape Town,South Africa,-34.185394,18.393259,map,Redhill,516dbb38a11561924600004b
Liming,null,null,27.033211,99.685693,map,Lime Kiln Canyon,516cf536bdc0f71fdd0073ad
Algund,Bolzano - Bozen,Italy,46.692077,11.113701,map,Algund,516d6779bdc0f71fdd047a7d
Druid Stones,Bishop,USA,37.311199,-118.471069,map,Bishop,516cf537bdc0f71fdd00747e
San Vito Lo Capo,Trapani,Italy,38.165673,12.725657,map,San Vito Lo Capo,516d677abdc0f71fdd047ac3
Grönbrinksberget,Södertälje,Sweden,59.059447,17.783003,map,Grönbrinksberget,516e27bf62bfea195a00ff48
Millstone,Peak District,United Kingdom,53.319672,-1.628128,map,Millstone,516e4e6262bfea195a01a887
Saint-Géry,Toulouse,France,44.479177,1.576617,map,Saint,516e206362bfea195a00c3b9
The Brickyard,Santa Barbara,"CA, USA",34.497732,-119.861183,map,The Brickyard,516cf537bdc0f71fdd007533
The Cave,Christchurch,New Zealand,-43.576194,172.733767,map,The Cave,516e681d62bfea195a023063
Parisella's Cave,Liverpool,United Kingdom,53.329795,-3.828561,map,Parisella's Cave,516e4e6362bfea195a01a8b4
Myklebostad,Harstad,Norway,68.424176,16.299462,added,Myklebostad,559df3338f567841412327bd
Mickey's Beach,San Francisco,"CA, USA",37.890917,-122.634448,map,Mickey's Beach,516cf537bdc0f71fdd0074cc
Ciężkowice,Nowy Sącz,Poland,49.785254,20.974377,map,Ciezkowice,516dc233a11561924600346e
Zikhron,H̱adera,Israel,32.554916,34.967723,added,Zikhron,559df3333e3e71af3ce00666
Vingsand,Trondheim,Norway,64.346746,10.463963,map,Vingsand,516e3f5762bfea195a017753
Nine Corners Lake,Schenectady,"NY, USA",43.193538,-74.543487,map,Nine Corners Lake,516cf537bdc0f71fdd0074ff
Sugar Loaf,Rio De Janeiro,Brazil,-22.949107,-43.156571,map,Rio Das Ostras,516e08e562bfea195a0000e8
Orpierre,Marseille,France,44.32093,5.694609,map,Orpierre,516d4ae8bdc0f71fdd03b702
Frank Slide,Calgary,Canada,49.591018,-114.391172,map,Frank Slide,516e206362bfea195a00c3e0
Bullenheimer Berg,Würzburg,Germany,49.629227,10.248528,added,Bullenheimer Berg,559df3333e3e71af3ce00667
Stjärnhov,Stockholm,Sweden,59.066704,17.019278,added,Stjärnhov,559df333c75b5c07241f570a
Уч-Кош,Yalta,Ukraine,44.530015,34.178078,add,,
El Falco,Costa Daurada,Spain,41.248935,0.945854,added,El Falco,559df3343e3e71af3ce00668
Zen Pen,Tulsa,"OK, USA",36.138568,-96.400781,added,Zen Pen,559df3348f567841412327be
Tatry Mountains,Poprad,Slovakia,49.256602,19.975204,added,Tatry Mountains,559df3343e3e71af3ce00669
Kvarntäkt/Toftbyn,Falun,Sweden,60.746595,15.680248,,,
Valje,Karlshamn,Sweden,56.06578,14.547278,map,Valjevo,516e746662bfea195a0280f1
Rogsån/Rogsjön,Falun,Sweden,60.709296,15.594535,,,
Lilla Bärsta,Uppsala,Sweden,59.80003,17.562675,map,Lilla Bärsta,516e27c062bfea195a00ffe6
Marnäs/Lungsjöån,Falun,Sweden,60.837885,15.619984,,,
Breakfast Boulders,Baxterville,USA,37.616535,-106.673078,added,Breakfast Boulders,559df3343e3e71af3ce0066a
Mynämäki,Turku,Finland,60.677214,21.981583,map,Mynämäki,516e621c62bfea195a022041
Mora/Brintbodarna,Borlänge,Sweden,60.60831,14.167128,,,
Kršlenica,Trnava,Slovakia,48.506643,17.319796,added,Kršlenica,559df335c75b5c07241f570b
Stemmevatne,Bergen,Norway,60.362196,5.397082,map,Bergen,516cec69bdc0f71fdd00146b
Tonsai Beach,Krabi,Thailand,8.019753,98.835625,added,Tonsai Beach,559df3353e3e71af3ce0066b
Diabona,Grenoble,France,44.938301,6.28743,added,Diabona,559df3353e3e71af3ce0066c
"Mt Penteli, Radar",Athens,Greece,38.081022,23.879358,map,Athens,516ce980bdc0f71fdd00006b
Portrane,Dublin,Ireland,53.488926,-6.098939,added,Portrane,559df335c75b5c07241f570c
Mount Nicholson,null,null,22.26099,114.186305,added,Mount Nicholson,559df3358f567841412327bf
Sonnikallio,Oulu,Finland,64.885382,28.900985,added,Sonnikallio,559df3353e3e71af3ce0066d
Daskaleio,Athens,Greece,37.831294,24.058177,map,Athens,516ce980bdc0f71fdd00006b
Molladalen,Ålesund,Norway,62.3092,6.32383,added,Molladalen,559df3363e3e71af3ce0066e
Vessölandet,Porvoo,Finland,60.270046,25.824566,map,Vessölandet,516e621c62bfea195a022058
Vaxlax,Vaasa,Finland,63.0518,21.74,map,Vaasa,516e621c62bfea195a022031
Schondratal,Frankfurt am Main,Germany,50.193825,9.752469,added,Schondratal,559df3363e3e71af3ce0066f
The Obed,Knoxville,"TN, USA",36.101934,-84.71688,added,The Obed,559df336c75b5c07241f570d
Three Rock,Dún Laoghaire,Ireland,53.24746,-6.236447,added,Three Rock,559df3363e3e71af3ce00670
Fagerdalen,Västervik,Sweden,57.719965,16.083984,map,Västervik,516e27c062bfea195a00ffb3
Aytons Cave,Dún Laoghaire,Ireland,53.362141,-6.082714,added,Aytons Cave,559df3368f567841412327c0
Järnforsen,Växjö,Sweden,57.422866,15.639124,map,Järnforsen,516e27c062bfea195a00ffc4
Uvnäs/Rogsjön,Falun,Sweden,60.722663,15.61816,,,
Tinos - Tinovo,Athens,Greece,37.589921,25.197613,map,Tinos,516ce981bdc0f71fdd00006d
Lamborn,Falun,Sweden,61.001029,15.682597,map,Lamborn,516e27c062bfea195a010018
Kvenvik,Alta,Norway,69.908276,23.070588,map,Pulo Di Altamura,516d677abdc0f71fdd047bee
Överturingen,Östersund,Sweden,62.45222,14.942589,added,Överturingen,559df337c75b5c07241f570e
"Tumpen, Ötztal",Innsbruck,Austria,47.18132,10.912417,added,Tumpen,559df3373e3e71af3ce00671
Kärsön,Stockholm,Sweden,59.321814,17.908588,map,Kärsön,516e27c062bfea195a00fffd
Almenäs,Borås,Sweden,57.769867,12.942667,map,Almenara,516d1ec8bdc0f71fdd0238eb
"Grytorna, Vinberget, Alnön",Sundsvall,Sweden,62.371628,17.434187,map,Grytorna,516e27c062bfea195a01002f
Angarka,Alushta,Ukraine,44.828193,34.311891,map,Angarka,516e6d8362bfea195a0259dd
Nabi Bawi,Busan,"Korea, Republic of",35.252751,129.067223,added,Nabi Bawi,559df3373e3e71af3ce00672
Kilen,Larvik,Norway,59.066452,10.01981,added,Kilen,559df3373e3e71af3ce00673
Hagerman Pass,Leadville,USA,39.246828,-106.476789,added,Hagerman Pass,559df3378f567841412327c1
Dala floda,Borlänge,Sweden,60.532694,14.679108,added,Dala floda,559df338c75b5c07241f570f
Pirunkivet,Tampere,Finland,61.382262,23.836417,added,Pirunkivet,559df3383e3e71af3ce00674
Hellemyr,Kristiansand,Norway,58.151323,7.911596,map,Hellemyr,516e3f5762bfea195a01776d
Nousiainen II,Turku,Finland,60.599442,22.08827,added,Nousiainen II,559df3383e3e71af3ce00675
Mont Simonet,Fontainebleau,France,48.299811,2.593835,map,Fontainebleau,516d4ae7bdc0f71fdd03b6da
Ökberget,Umeå,Sweden,63.906386,20.050242,map,Ökberget,516e27c062bfea195a00ffd3
"Balemountains, Rafu",Goba,Ethiopia,6.874662,39.744802,added,Balemountains,559df3383e3e71af3ce00677
Graveyard-Blocken,Eskilstuna,Sweden,59.368132,16.413797,added,Graveyard,559df3388f567841412327c2
Richland Creek Wilderness Area,Fayetteville,"AR, USA",35.79244,-93.040252,added,Richland Creek Wilderness,559df339c75b5c07241f5710
Noormarkku,Pori,Finland,61.630549,21.867599,added,Noormarkku,559df3393e3e71af3ce00678
Högön,Sundsvall,Sweden,62.285707,17.501055,added,Högön,559df3393e3e71af3ce00679
Jungfruberget,Falun,Sweden,60.629765,15.631365,added,Jungfruberget,559df3393e3e71af3ce0067a
Jero,Joensuu,Finland,63.064078,29.805436,added,Jero,559df3398f567841412327c3
Sunnanbäck,null,null,36.597889,-37.809448,added,Sunnanbäck,
Münchenbryggeriet,Stockholm,Sweden,59.320853,18.051074,map,Münchenbryggeriet,516e27bf62bfea195a00ff59
Fields of Joy,Rocklands,South Africa,-32.120855,19.069862,map,Rocklands,516dbb38a115619246000076
Franchard Hautes-Plaines,Fontainebleau,France,48.407902,2.59953,map,Fontainebleau,516d4ae7bdc0f71fdd03b6da
Nappikumpu,Rovaniemi,Finland,66.368696,26.603222,added,Nappikumpu,559df33ac75b5c07241f5711
Chiomonte,Torino,Italy,45.128244,6.985652,map,Chiomonte,516d6779bdc0f71fdd047a85
Heby,Västerås,Sweden,59.977521,16.731148,added,Heby,559df33a3e3e71af3ce0067b
Tres Piedras,Santa Fe,"NM, USA",36.660544,-105.982597,map,Valle Santa Felicita,516d677abdc0f71fdd047b84
Tokerud,Oslo,Norway,59.966391,10.929809,map,Tokerud,516e3f5762bfea195a01774c
I 13,Falun,Sweden,60.638441,15.741531,added,I 13,559df33a3e3e71af3ce0067c
Utsikten,Tjörn,Sweden,57.952646,11.58092,map,Utsikten,516e27c062bfea195a00fffe
Sissy crag,Sydney,Australia,-33.763995,151.201368,map,Sissy Crag,516d8d0fbdc0f71fdd05487e
Carver,Gresham,"OR, USA",45.392031,-122.498507,map,Carver,516cf537bdc0f71fdd007510
Rällsjön,Falun,Sweden,60.747019,15.316916,added,Rällsjön,559df33a3e3e71af3ce0067d
Resta,Uppsala,Sweden,59.790368,17.201715,added,Resta,559df33a8f567841412327c4
Cala Luna,Cala Gonone,Italy,40.224998,9.62372,map,Cala Luna,516d677abdc0f71fdd047ae0
Yrttisuo,Jyväskylä,Finland,62.223916,25.752288,map,Jyväskylä,516e621c62bfea195a022047
Jonberget,Skellefteå,Sweden,64.662849,21.117966,added,Jonberget,559df33bc75b5c07241f5712
Kaukalokallio,Tampere,Finland,61.386999,23.856535,added,Kaukalokallio,559df33b3e3e71af3ce0067e
Håkavika,Sandefjord,Norway,59.060691,10.231233,map,Sandefjord,516e3f5762bfea195a017761
Pahamäki,Pori,Finland,61.703587,21.690788,added,Pahamäki,559df33b3e3e71af3ce0067f
Rocher Fin,Fontainebleau,France,48.37709,2.53557,map,Fontainebleau,516d4ae7bdc0f71fdd03b6da
Krossberget,Piteå,Sweden,65.311184,21.205673,added,Krossberget,559df33b3e3e71af3ce00680
Trolla,Trondheim,Norway,63.450893,10.303416,map,Trolla,516e3f5762bfea195a017765
Raven Tor,Peak District,United Kingdom,53.256517,-1.776813,map,Raven Tor,516e4e6262bfea195a01a872
Awirs,Seraing,Belgium,50.5909,5.408438,map,Les Awirs,516e12f362bfea195a005f7a
Rörbo,Uppsala,Sweden,59.822818,17.195406,added,Rörbo,559df33b8f567841412327c5
Malibu Creek,Thousand Oaks,"CA, USA",34.08963,-118.731617,map,Malibu Creek,516cf537bdc0f71fdd00757d
Kubrah Canyon,Barkā&#39;,Oman,23.446037,57.88493,added,Kubrah Canyon,559df33b3e3e71af3ce00682
Dihedral Boulders,Rocklands,South Africa,-32.113186,19.069004,map,Rocklands,516dbb38a115619246000076
Monte Oro,Ogliastra,Italy,40.012932,9.682978,added,Monte Oro,559df33bc75b5c07241f5713
Illuusio,Tampere,Finland,61.524495,23.423488,added,Illuusio,559df33b3e3e71af3ce00683
Campground Boulders,Grampians,Australia,-36.920438,142.388054,map,Grampians,516d8d0fbdc0f71fdd05485a
Hallberget/Ljugaren,Falun,Sweden,61.002194,15.429311,,,
La Gorgette,Nizwá,Oman,23.194285,57.390996,added,La Gorgette,559df33c3e3e71af3ce00684
Stavsjö,Norrköping,Sweden,58.736861,16.355038,added,Stavsjö,559df33cc75b5c07241f5714
Skiftinge,Eskilstuna,Sweden,59.399185,16.540904,map,Skiftinge,516e27c062bfea195a010038
Luftfartsverket,Drammen,Norway,59.734754,10.370402,added,Luftfartsverket,559df33c8f567841412327c6
Kramnäs,Eskilstuna,Sweden,59.085937,16.647959,added,Kramnäs,559df33c3e3e71af3ce00685
Korpjärvi,Imatra,Finland,61.255129,29.056714,added,Korpjärvi,559df33d3e3e71af3ce00686
Zimmern,Würzburg,Germany,49.902485,9.591472,added,Zimmern,559df33d3e3e71af3ce00687
Ängbyplan,Stockholm,Sweden,59.339106,17.911309,added,Ängbyplan,559df33dc75b5c07241f5715
Krasnyj holm,Vyborg,Russian Federation,60.770321,28.79967,added,Krasnyj holm,559df33d8f567841412327c7
Ziegelhausen,Heidelberg,Germany,49.413458,8.776574,map,Ziegelhausen,516cec69bdc0f71fdd001480
Lauste,Turku,Finland,60.427209,22.354281,added,Lauste,559df33d3e3e71af3ce00688
Area 74,Fayetteville,"AR, USA",36.033553,-93.67233,map,Area 74,516cf537bdc0f71fdd0074ce
Getu (China),Guiyang,China,26.723227,105.823059,map,Getu,516e5df862bfea195a020796
Tallsjö,Västervik,Sweden,57.715885,16.05463,map,Västervik,516e27c062bfea195a00ffb3
Car Crash Quarry,Adelaide,Australia,-34.988346,138.624855,added,Car Crash Quarry,559df33e3e3e71af3ce00689
Ruhrtal,Hagen,Germany,51.385388,7.391739,map,Ruhrtal,516cec69bdc0f71fdd001415
Floda,Lerum,Sweden,57.814155,12.358074,added,Floda,559df33e3e3e71af3ce0068a
Louhos,Jyväskylä,Finland,62.211014,25.761583,map,Louhos,516e621c62bfea195a022029
Mariensee,Ternitz,Austria,47.549522,16.030769,map,Mariensee,516ec82d91e6730000000060
Långhedsberg,Borlänge,Sweden,60.716618,14.413545,added,Långhedsberg,559df33ec75b5c07241f5716
Su Telargiu Oro cave,Ogliastra,Italy,40.069099,9.69094,added,Su Telargiu Oro,559df33e8f567841412327c8
Hanikka,Espoo,Finland,60.13238,24.684777,map,Espoo,516e621c62bfea195a022036
Skiftnes,Arendal,Norway,58.437859,8.501592,added,Skiftnes,559df33e3e3e71af3ce0068b
Adelsberg,Würzburg,Germany,50.035863,9.729198,added,Adelsberg,559df33f3e3e71af3ce0068d
"Mt Penteli, Spilia Ntaveli",Athens,Greece,38.074696,23.886967,map,Athens,516ce980bdc0f71fdd00006b
Murgtal,Zürich,Switzerland,47.091514,9.206715,map,Murgtal,516e14ce62bfea195a006cc7
Mommehål 2,Västervik,Sweden,57.763617,16.5457,map,Västervik,516e27c062bfea195a00ffb3
"Jaskinia Golaska, Piekary",Kraków,Poland,50.015185,19.792678,added,Jaskinia Golaska,559df33f3e3e71af3ce0068c
Niegowonice,Dąbrowa Górnicza,Poland,50.398575,19.437132,map,Niegowonice,516dc233a11561924600346b
Herkules,Jyväskylä,Finland,62.1008,25.7756,map,Jyväskylä,516e621c62bfea195a022047
Obbola,Umeå,Sweden,63.688499,20.258985,map,Obbola,516e27c062bfea195a00fffa
Tinos - Xinara,Athens,Greece,37.577225,25.165616,map,Tinos,516ce981bdc0f71fdd00006d
Turtle Lake,Durango,USA,37.332414,-107.882671,map,Turtle Lake,516cf537bdc0f71fdd007563
"Grüne Hölle, Frankenjura",Frankenjura,Germany,49.701426,11.305203,map,Frankenjura,516e14ce62bfea195a006cb6
14er Kehre,Lech,Austria,46.946734,10.066307,map,Lechtal,516ec82e91e6730000000092
Svensro,Stockholm,Sweden,59.147901,18.181128,added,Svensro,559df33fc75b5c07241f5717
Kymppikivi,Jyväskylä,Finland,62.1394,25.7281,map,Jyväskylä,516e621c62bfea195a022047
Grävsvinsberg,Borlänge,Sweden,60.742322,14.463625,added,Grävsvinsberg,559df33f8f567841412327c9
Koropi,Athens,Greece,37.915979,23.793462,map,Athens,516ce980bdc0f71fdd00006b
Petäjävaara,Tornio,Finland,66.506774,23.981469,added,Petäjävaara,559df33f3e3e71af3ce0068e
Plavecky Hrad - Blazon,Trnava,Slovakia,48.495166,17.269159,added,Plavecky Hrad,559df340c75b5c07241f5718
Sant Joan,Manresa,Spain,41.756511,1.770371,map,Sant Joan De Vilatorrada,516d1ec8bdc0f71fdd0238c2
Ruoppasuo,Tampere,Finland,61.602702,23.313226,added,Ruoppasuo,559df3408f567841412327ca
Farsta,Stockholm,Sweden,59.237654,18.096962,map,Farsta,516e27c062bfea195a00ffd6
Spansdalen,Harstad,Norway,68.715518,17.885039,added,Spansdalen,559df3403e3e71af3ce0068f
Temple Crag,null,null,22.229679,113.982983,added,Temple Crag,559df3403e3e71af3ce00690
Cañada del Capricho,Arona,Spain,28.221156,-16.62019,map,Cañada Del Gigante,516e3be362bfea195a01614f
Vattenledningsparken,Jönköping,Sweden,57.761059,14.12816,added,Vattenledningsparken,559df3413e3e71af3ce00691
Ras Al Khaimah,Ra&#39;s al Khaymah,United Arab Emirates,25.783508,56.074562,added,Ras Al Khaimah,559df3413e3e71af3ce00692
Jurassic Park,Pfalz,Germany,49.261434,7.833054,map,Pfalz,516cec69bdc0f71fdd001439
Schwanberg,Würzburg,Germany,49.722981,10.27123,added,Schwanberg,559df3418f567841412327cb
Lützelbach,Darmstadt,Germany,49.74908,8.76606,added,Lützelbach,559df341c75b5c07241f5719
Laitamaa,Espoo,Finland,60.252614,24.510117,map,Espoo,516e621c62bfea195a022036
Hadash,Nizwá,Oman,23.12669,57.754177,added,Hadash,559df3413e3e71af3ce00693
Ryssa,Borlänge,Sweden,60.906402,14.46281,added,Ryssa,559df3413e3e71af3ce00694
"Roy, New Mexico",Mills,USA,36.17385,-104.279785,map,Porche De Roiseux,516e12f362bfea195a005f88
Häggsta,Stockholm,Sweden,59.237445,17.882073,map,Häggsta,516e27bf62bfea195a00ff46
Tavelsjöberget,Umeå,Sweden,64.012841,20.017433,map,Tavelsjöberget,516e27bf62bfea195a00ffa6
Chulilla,Torrent,Spain,39.655762,-0.891974,map,Chulilla,516d1ec8bdc0f71fdd023930
Dala Järna/Högosta,Borlänge,Sweden,60.52183,14.421229,,,
Myllypuro,Helsinki,Finland,60.219419,25.067947,added,Myllypuro,559df3418f567841412327cc
Gateway Canyon,Red Rock Canyon,USA,36.164869,-115.413136,map,Red Rock,516cf537bdc0f71fdd00759e
Secret Spot (Turku),Turku,Finland,60.455075,22.204962,map,Secret Spot,516ec82d91e673000000006e
Vuorijärvet,Varkaus,Finland,62.292336,27.669467,added,Vuorijärvet,559df341c75b5c07241f571a
Västanfjärd,Turku,Finland,60.004372,22.703161,added,Västanfjärd,559df3423e3e71af3ce00695
Maltbränna,Umeå,Sweden,64.611589,19.240193,added,Maltbränna,559df3423e3e71af3ce00696
Xx,Uppsala,Sweden,59.793175,17.400069,map,Xxxx,516d8d0fbdc0f71fdd05487a
Mellanvalsan,Borlänge,Sweden,60.601022,15.337772,added,Mellanvalsan,559df342c75b5c07241f571b
Kalvrumlet,Pietarsaari,Finland,63.775283,22.806085,added,Kalvrumlet,559df3428f567841412327cd
Big Rock,Calgary,Canada,50.705727,-114.076442,map,Big Rock,516e206362bfea195a00c3f0
i-20,Umeå,Sweden,63.864852,20.289602,map,Igarapé,516e08e562bfea195a0000c4
Graniitti,Jyväskylä,Finland,62.219357,25.778143,map,Jyväskylä,516e621c62bfea195a022047
Ulvås,Göteborg,Sweden,57.638022,11.902764,added,Ulvås,559df3433e3e71af3ce00697
Bjursås,Falun,Sweden,60.747135,15.47905,added,Bjursås,559df3433e3e71af3ce00698
The Sheep Pen,Wales,United Kingdom,53.152638,-4.034085,map,Walensee,516e14ce62bfea195a006c87
Emerald Lake,Rocky Mountain National Park,USA,40.309517,-105.665807,added,Emerald Lake,559df3433e3e71af3ce00699
Bratthammaren,Bodø,Norway,67.410125,14.693871,map,Bratthammaren,516e3f5a62bfea195a0177ba
Treunitzer Klettergarten,Frankenjura,Germany,49.95911,11.208695,map,Frankenjura,516e14ce62bfea195a006cb6
Smögen,Uddevalla,Sweden,58.358601,11.212,added,Smögen,559df343c75b5c07241f571c
Pyynikki,Tampere,Finland,61.494403,23.727671,map,Pyynikki,516e621c62bfea195a02205a
Ekstubbeberget,Stockholm,Sweden,59.246696,18.17085,map,Ekstubbeberget,516e27bf62bfea195a00ff83
Selsberget,Skellefteå,Sweden,64.638032,21.116638,added,Selsberget,559df3438f567841412327ce
Vätti,Turku,Finland,60.47208,22.257657,map,Vättis,516e14ce62bfea195a006c52
Beta,Linköping,Sweden,58.18428,15.857306,added,Beta,559df3443e3e71af3ce0069a
Pornainen,Sipoo,Finland,60.476854,25.367709,map,Pornainen,516e621c62bfea195a02204d
Born/Ljugaren,Falun,Sweden,60.972597,15.313826,,,
Massenbuch,Würzburg,Germany,50.037683,9.707273,added,Massenbuch,559df3443e3e71af3ce0069b
Hikivuori,Tampere,Finland,61.468217,23.89226,added,Hikivuori,559df3443e3e71af3ce0069c
Langinkoski,Kotka,Finland,60.487706,26.894327,added,Langinkoski,559df344c75b5c07241f571d
Campusblocket,Uppsala,Sweden,59.756211,17.475429,added,Campusblocket,559df3448f567841412327cf
Dolina Bedkowska,Kraków,Poland,50.172006,19.739674,map,Dolina Bedkowska,516dc234a115619246003492
Neraki bay,Argos,Greece,37.552811,22.806888,map,Argolis,516ce980bdc0f71fdd000054
Triangular lake (sport),Svetogorsk,Russian Federation,61.110784,29.164715,map,Triangular Lake,516e753762bfea195a0285d1
Boissy aux Cailles,Fontainebleau,France,48.315102,2.50832,map,Fontainebleau,516d4ae7bdc0f71fdd03b6da
Maitokivi,Kouvola,Finland,60.886886,26.759434,added,Maitokivi,559df3443e3e71af3ce0069d
Rädsjön,Borlänge,Sweden,60.824959,14.340115,added,Rädsjön,559df3453e3e71af3ce0069e
Beaver Creek Boulders,South Fork,USA,37.606106,-106.677289,added,Beaver Creek Boulders,559df3453e3e71af3ce0069f
Kaľamarka,Banská Bystrica,Slovakia,48.603822,19.41973,added,Kaľamarka,559df345c75b5c07241f571e
Skravelsjö,Umeå,Sweden,63.775707,20.095732,map,Skravelsjö,516e27c062bfea195a00ffb8
Lehotské skaly,Prievidza,Slovakia,48.670283,18.744682,added,Lehotské skaly,559df3458f567841412327d0
Hörtingerum,Västervik,Sweden,57.7325,16.563134,map,Västervik,516e27c062bfea195a00ffb3
Skravel 2,Umeå,Sweden,63.775176,20.096322,added,Skravel 2,559df3453e3e71af3ce006a0
Lengfurt- Flussbett,Würzburg,Germany,49.819891,9.576902,added,Lengfurt,559df3453e3e71af3ce006a1
Horred,Kungsbacka,Sweden,57.365296,12.401738,map,Horne Lake,516e206362bfea195a00c393
Ryjis,Barcelona,Spain,41.804078,3.636475,map,Barcelona,516d1ec8bdc0f71fdd023ad9
Mauritzholm,Linköping,Sweden,58.368687,15.947136,map,Mauritzholm,516e27c062bfea195a010009
Stöde,Sundsvall,Sweden,62.418201,16.584055,added,Stöde,559df3463e3e71af3ce006a2
Uuhis,Rauma,Finland,61.116215,21.432266,added,Uuhis,559df346c75b5c07241f571f
Matinkylä,Helsinki,Finland,60.153542,24.752626,added,Matinkylä,559df3468f567841412327d1
Pajštún,Bratislava,Slovakia,48.275467,17.083182,added,Pajštún,559df3463e3e71af3ce006a3
Hemratversen/Ljugaren,Falun,Sweden,60.94981,15.381567,,,
Örn,Linköping,Sweden,58.237511,15.964442,map,Örnberget,516e27bf62bfea195a00ff2b
Falkberget,Skellefteå,Sweden,64.725357,20.902777,map,Falkberget,516e621c62bfea195a022011
Trolldalstjonna,Lofoten,Norway,68.176103,13.850406,map,Lofoten,516e3f5a62bfea195a017782
Mijas,Fuengirola,Spain,36.592499,-4.63946,map,Alto Mijares,516d1ec8bdc0f71fdd023a5d
Backen,Sundsvall,Sweden,62.573323,17.059725,added,Backen,559df3463e3e71af3ce006a4
Shenandoah Secret's,Richmond,"VA, USA",37.334405,-77.347784,added,Shenandoah Secret's,559df346c75b5c07241f5720
Lamma,null,null,22.198452,114.134774,added,Lamma,559df3473e3e71af3ce006a5
Jokelan kivi,Oulu,Finland,64.98215,26.183692,added,Jokelan kivi,559df3478f567841412327d2
Lying Cliff,Qiryat Shemona,Israel,33.189553,35.55135,map,Lying Cliff,516e7b0862bfea195a02a7db
Middle Cathedral Yosemite,Yosemite,USA,37.717801,-119.632155,map,Yosemite,516cf537bdc0f71fdd007484
Achleiten,Kufstein,Austria,47.528329,12.202034,map,Achleiten,516ec82e91e673000000007c
Söderö,Linköping,Sweden,58.088535,15.854532,added,Söderö,559df3473e3e71af3ce006a6
Klockarnäs,Falun,Sweden,60.832604,15.77729,added,Klockarnäs,559df3473e3e71af3ce006a7
Oceanside minnerisset,Lofoten,Norway,68.197551,14.217081,map,Lofoten,516e3f5a62bfea195a017782
Auhtovaara,Oulu,Finland,65.017277,27.637074,added,Auhtovaara,559df347c75b5c07241f5721
Muurahaiskivi,Lappeenranta,Finland,61.115501,28.099899,added,Muurahaiskivi,559df3478f567841412327d3
Hemtjärn,Karlstad,Sweden,59.734043,14.166323,added,Hemtjärn,559df3473e3e71af3ce006a8
Vuoriniemi,Savonlinna,Finland,61.605151,29.231057,added,Vuoriniemi,559df3483e3e71af3ce006a9
Hammaspeikko,Nokia,Finland,61.521651,23.382363,added,Hammaspeikko,559df3483e3e71af3ce006aa
Crumbly,Sydney,Australia,-33.780191,151.215391,map,Crumbly,516d8d0fbdc0f71fdd054861
Kurkvuori,Imatra,Finland,61.253313,28.887856,added,Kurkvuori,559df348c75b5c07241f5722
Booki,Bila Tserkva,Ukraine,49.096913,30.396895,map,Booki,516e6d8462bfea195a0259f3
Tosseryd,Borås,Sweden,57.759044,12.971764,map,Tosseryd,516e27bf62bfea195a00ffa0
Valnöten,Kalmar,Sweden,56.809987,16.610028,added,Valnöten,559df3488f567841412327d4
Rocky Butte,Gresham,"OR, USA",45.546454,-122.565672,added,Rocky Butte,559df3483e3e71af3ce006ab
Kuropatwa,Olsztyn,Poland,50.767408,19.258488,map,Olsztyn,516dc234a1156192460034bb
Rocks State Park,Baltimore,"MD, USA",39.635435,-76.412566,added,Rocks State Park,559df3493e3e71af3ce006ac
Kellomäki,Nurmijärvi,Finland,60.532968,24.923344,added,Kellomäki,559df3493e3e71af3ce006ad
Horne Lake,Courtenay,Canada,49.353169,-124.741259,map,Horne Lake,516e206362bfea195a00c393
Peter's Kill,The Gunks,USA,41.738993,-74.214106,map,Peter's Kill,516cf537bdc0f71fdd0074d6
El Torcal,El Chorro,Spain,36.951264,-4.545765,map,El Torcal,516d1ec8bdc0f71fdd023ad7
Idkerberget borlänge,Borlänge,Sweden,60.367437,15.218682,added,Idkerberget borlänge,559df349c75b5c07241f5723
Björkberget,Bohuslän,Sweden,58.456557,11.472259,map,Björkberget,516e27bf62bfea195a00ff9a
Puerto Rico,Marbella,Spain,36.54326,-4.885311,map,Puerto Rico,516d1ec8bdc0f71fdd0239ee
Krogberget,Umeå,Sweden,63.979143,20.125279,added,Krogberget,559df3498f567841412327d5
Kerkonkoski,Kuopio,Finland,62.828368,26.688237,added,Kerkonkoski,559df3493e3e71af3ce006ae
Zanoah,Bet Shemesh,Israel,31.712726,35.029886,added,Zanoah,559df3493e3e71af3ce006af
Käräjä,Hämeenlinna,Finland,60.996379,24.463034,map,Hämeenlinna,516e621c62bfea195a022053
Sra.Salto,Porto,Portugal,41.127728,-8.433872,map,Ponte Porton,516e59d362bfea195a01f4ed
Prosjekt X,Sandefjord,Norway,59.080623,10.267434,map,Sandefjord,516e3f5762bfea195a017761
Omis,Split,Croatia,43.447163,16.694906,map,Omis,516e59d362bfea195a01f4d9
Aiguille du Midi,Chamonix,France,45.878865,6.887913,map,Chamonix,516d4ae8bdc0f71fdd03b749
Cheakamus Canyon,Squamish,Canada,49.906686,-123.155901,map,Cheakamus Canyon,516e206362bfea195a00c3a3
Jamelnica,Drogobych,Ukraine,49.149545,23.491344,added,Jamelnica,559df34a3e3e71af3ce006b0
Västra Balingsnäs,Stockholm,Sweden,59.217711,17.994983,added,Västra Balingsnäs,559df34a8f567841412327d6
Hållsunga,Göteborg,Sweden,57.840799,11.744986,map,Hållsunga,516e27bf62bfea195a00ff33
Gubben i Berget,Kungälv,Sweden,57.930778,11.901525,map,Gubben I Berget,516e27bf62bfea195a00ff43
Hidden Pair Boulders,Richmond,"VA, USA",37.545938,-77.564163,added,Hidden Pair Boulders,559df34ac75b5c07241f5724
Branické skály,Praha,Czech Republic,50.042106,14.412475,added,Branické skály,559df34a3e3e71af3ce006b1
Suesca,Zipaquirá,Colombia,5.090944,-73.791046,map,Suesca,516e7e3462bfea195a02b292
Sandsjöbacka / Lillesjön,Göteborg,Sweden,57.536745,11.99604,added,Sandsjöbacka / Lillesjön,559df34a3e3e71af3ce006b2
Sirevåg,Stavanger,Norway,58.493357,5.795374,map,Sirevåg,516e3f5a62bfea195a0177c8
Wonderwall,Al `Ayn,United Arab Emirates,24.073425,56.04538,map,Wonderwall,516e806c62bfea195a02bb24
"The Wizard of Oz, Qing Yuan",Shaoguan,China,24.154615,112.909096,added,The Wizard of,559df34b3e3e71af3ce006b3
Archangel Valley,Anchorage,"AK, USA",61.776999,-149.217553,added,Archangel Valley,559df34bc75b5c07241f5725
Monte Amiata,Perugia,Italy,42.899107,11.635757,map,Monte Amiata,516d6779bdc0f71fdd047a9f
Siuntio,Kirkkonummi,Finland,60.090429,24.292652,added,Siuntio,559df34b3e3e71af3ce006b4
Vågakallen,Lofoten,Norway,68.188719,14.296088,map,Lofoten,516e3f5a62bfea195a017782
Kastri,Kalymnos,Greece,37.049851,26.93624,map,Kalymnos,516d4ae8bdc0f71fdd03b81a
Jynkän hautavajoama,Kuopio,Finland,62.847881,27.645514,added,Jynkän hautavajoama,559df34b3e3e71af3ce006b5
Kvalvika,Lofoten,Norway,68.071701,13.076134,map,Lofoten,516e3f5a62bfea195a017782
Gorges du Loup,Antibes,France,43.728188,6.992111,map,Gorges Du Court,516e14ce62bfea195a006c7c
Merikosken muuri,Oulu,Finland,65.023003,25.4727,added,Merikosken muuri,559df34b8f567841412327d7
Pyhäntä,Oulu,Finland,64.1894,26.349899,added,Pyhäntä,559df34b3e3e71af3ce006b6
Voralpsee,Sankt Gallen,Switzerland,47.151735,9.377427,map,Voralpsee,516e14ce62bfea195a006c4b
Woodhouse scar,Yorkshire,United Kingdom,53.707567,-1.877096,added,Woodhouse scar,559df34cc75b5c07241f5726
Lumpy Ridge,Rocky Mountain National Park,USA,40.438129,-105.500108,map,Lumpy Ridge,516cf537bdc0f71fdd007523
Great Falls VA,Washington,"DC, USA",38.994506,-77.251182,map,Great Falls,516cf536bdc0f71fdd00745b
Shark Fin,Al `Ayn,United Arab Emirates,24.103944,56.064466,added,Shark Fin,559df34c3e3e71af3ce006b7
Ulorna,Bohuslän,Sweden,58.396017,11.405193,map,Bohuslän,516e27c062bfea195a00ffdd
Orberg/Ljugaren,Falun,Sweden,60.967193,15.471153,,,
The Narrows,Ra&#39;s al Khaymah,United Arab Emirates,25.75831,56.263647,added,The Narrows,559df34c8f567841412327d8
Stugun,Östersund,Sweden,63.171986,15.578422,map,Stugun,516e27bf62bfea195a00ff63
Karakaya,Eskişehir,Turkey,39.514835,31.240933,map,Karakayalar,516d86d6bdc0f71fdd052423
Pedra do Baú,São José dos Campos,Brazil,-22.688567,-45.660639,map,Pedra Do Baú,516e08e562bfea195a00006f
Dardanelle Rock,Little Rock,"AR, USA",35.237233,-93.164041,map,Dardanelle Rock,516cf536bdc0f71fdd00740d
"Kasagi, Kyoto, Japan",Nara,Japan,34.758256,135.938816,map,Los Naranjos,516d1ec8bdc0f71fdd023ab1
Shagg crag,Portland,"ME, USA",44.425107,-70.524416,map,Portland,516e4e6362bfea195a01a8ca
Olympos,Antalya,Turkey,36.39163,30.470216,map,Olympos,516d86d6bdc0f71fdd05241b
Parete dimenticata,Finale Ligure,Italy,44.196028,8.319781,added,Parete dimenticata,559df34c3e3e71af3ce006b8
"Monkey Buttress, Braemar Hill",null,null,22.282256,114.197313,added,Monkey Buttress,559df34c3e3e71af3ce006b9
Missingmyr,Moss,Norway,59.364039,10.94852,map,Missingmyr,516e3f5a62bfea195a017790
Damtjern,Drammen,Norway,59.802966,10.284405,map,Damtjern,516e3f5a62bfea195a017788
Lauttasaari Aki Poliz,Helsinki,Finland,60.159853,24.867672,added,Lauttasaari Aki Poliz,559df34dc75b5c07241f5727
Kotečnik,Celje,Slovenia,46.194151,15.176962,map,Kotecnik,516d880bbdc0f71fdd052fef
"Coney Glen, Knysna",Knysna,South Africa,-34.082877,23.068536,added,Coney Glen,559df34d8f567841412327d9
"The Bamboo Grove, Qing Yuan",Shaoguan,China,24.208103,112.921815,added,The Bamboo Grove,559df34d3e3e71af3ce006ba
The outback,Joshua Tree,USA,34.02051,-116.189089,map,Joshua Tree,516cf537bdc0f71fdd00748b
Rågårdsdal,Bohuslän,Sweden,58.398131,11.413336,map,Bohuslän,516e27c062bfea195a00ffdd
Lappnor east,Kotka,Finland,60.419403,26.166601,added,Lappnor east,559df34d3e3e71af3ce006bb
Corupá,Joinville,Brazil,-26.418008,-49.245529,map,Corupá,516e08e562bfea195a00005b
Bridestones,Yorkshire,United Kingdom,53.738602,-2.11089,map,Bridestones,516e4e6362bfea195a01a8cf
Chicken Cave,Yangshuo,China,24.715648,110.470448,map,Yangshuo,516e5df862bfea195a020795
Black Crag,null,null,22.258756,114.188311,added,Black Crag,559df34d3e3e71af3ce006bc
Biolaakso,Turku,Finland,60.435076,22.325886,added,Biolaakso,559df34e8f567841412327da
Läcköklippan,Lidköping,Sweden,58.67532,13.21629,added,Läcköklippan,559df34e3e3e71af3ce006bd
Custer State Park,Rapid City,"SD, USA",43.845918,-103.563626,added,Custer State Park,559df34ec75b5c07241f5728
Testrarea,Cherry Creek,USA,39.909736,-115.664063,added,Testrarea,559df34e3e3e71af3ce006be
Riverside Quarry,Riverside,"CA, USA",34.016206,-117.415629,map,Riverside Quarry,516cf536bdc0f71fdd00739f
Nynäsklippan,Motala,Sweden,58.786909,14.827101,added,Nynäsklippan,559df34e3e3e71af3ce006bf
Mont Blanc,Chamonix,France,45.902075,6.883729,map,Chamonix,516d4ae8bdc0f71fdd03b749
Blacknor,Dorset,United Kingdom,50.542345,-2.455273,map,Blacknor,516e4e6262bfea195a01a889
Lagada,Kalamata,Greece,37.089692,22.323532,map,Lagada,516ce980bdc0f71fdd00004c
Munsala,Pietarsaari,Finland,63.488589,22.468543,added,Munsala,559df34e8f567841412327db
Incredible Hulk,null,null,38.12156,-119.415379,added,Incredible Hulk,559df34f3e3e71af3ce006c0
"Lillån, Örebro",Örebro,Sweden,59.323601,15.242136,added,Lillån,559df34fc75b5c07241f5729
Eagle Crag,null,null,22.228408,113.978519,added,Eagle Crag,559df34f3e3e71af3ce006c1
São Bento doSapucai,null,null,null,null,map,São Bento,516e08e562bfea195a000095
Half Dome,Yosemite,USA,37.748797,-119.532323,map,Yosemite,516cf537bdc0f71fdd007484
Tennessee Wall,Chattanooga,"TN, USA",35.07075,-85.404705,map,Tennessee Wall,516cf536bdc0f71fdd0073fa
La Cabrera,Madrid,Spain,40.864394,-3.616476,map,La Cabrera,516d1ec8bdc0f71fdd0239b3
Stolby,null,null,55.918189,92.730961,added,Stolby,559df34f3e3e71af3ce006c2
Bürs,Feldkirch,Austria,47.147378,9.798364,map,Bürs,516ec82e91e6730000000080
Moravský Kras,Blansko,Czech Republic,49.407622,16.77269,map,Moravský Kras,516e769562bfea195a028c3d
Leaz,Geneva,Switzerland,46.098,5.88975,map,Léaz,516d4ae8bdc0f71fdd03b82f
Ardeche,Nîmes,France,44.39951,4.200897,map,Ardeche,516d4ae8bdc0f71fdd03b70e
Lilly boulders,Knoxville,"TN, USA",36.111253,-84.699097,map,Lilly Boulders,516cf537bdc0f71fdd0074b3
Schöllenen,Lucerne,Switzerland,46.704321,8.532944,added,Schöllenen,559df3503e3e71af3ce006c3
Toyota,Okazaki,Japan,35.021281,137.199926,map,Toyota,516e7ee262bfea195a02b668
Jynkkä,Kuopio,Finland,62.858299,27.646099,added,Jynkkä,559df3508f567841412327dc
Rocha da Pena,Loulé,Portugal,37.253283,-8.101954,map,Rocha Da Pena,516e5e3962bfea195a020b85
Entrepeñas,Madrid,Spain,40.487693,-2.749672,map,Entrepeñas,516d1ec8bdc0f71fdd02393e
Patones,Madrid,Spain,40.854591,-3.487473,map,Patones,516d1ec8bdc0f71fdd02392c
Partenen,Lech,Austria,46.962621,10.071946,map,Partenen,516ec82d91e673000000005b
Arnad,Torino,Italy,45.632241,7.733967,added,Arnad,559df350c75b5c07241f572a
Glenmacnass,Dún Laoghaire,Ireland,53.081137,-6.373804,added,Glenmacnass,559df3503e3e71af3ce006c4
La Saume / S2 - 2100m,Torino,Italy,44.66731,6.718826,added,La Saume /,559df3503e3e71af3ce006c5
Moss rock preserve,Birmingham,"AL, USA",33.381685,-86.841002,map,Moss Rock Preserve,516cf537bdc0f71fdd0074d1
Silverberget,Linköping,Sweden,57.951553,16.143379,map,Silverberget,516e27bf62bfea195a00ff8f
Nanaimo River Light &amp; Darkside,Nanaimo,Canada,49.074344,-123.908873,added,Nanaimo River Light,559df3503e3e71af3ce006c6
Korpaberget,Alingsås,Sweden,57.915418,12.528534,map,Korpaberget,516e27bf62bfea195a00ff3f
"Symplegades, Kalymnos",Kalymnos,Greece,36.879621,25.861816,map,Kalymnos,516d4ae8bdc0f71fdd03b81a
Eftang,Larvik,Norway,59.013323,10.134564,added,Eftang,559df3518f567841412327dd
Hirschwände,Ternitz,Austria,47.917981,15.936603,map,Hirschwände,516ec82d91e6730000000052
Ravens Glen,Dún Laoghaire,Ireland,53.162211,-6.240749,added,Ravens Glen,559df351c75b5c07241f572b
Bulo Point,Gresham,"OR, USA",45.379221,-121.470637,added,Bulo Point,559df3513e3e71af3ce006c7
Passo Sella,Bolzano - Bozen,Italy,46.512644,11.752686,added,Passo Sella,559df3513e3e71af3ce006c8
Logan Canyon,null,null,null,null,map,Logan Canyon,516cf536bdc0f71fdd007387
The Tram Boulders,Indio,"CA, USA",33.858371,-116.558201,map,The Tramway,516cf537bdc0f71fdd007530
Falaises de Presles,Grenoble,France,45.081521,5.372606,added,Falaises de Presles,559df3513e3e71af3ce006c9
Dynestad,Västervik,Sweden,57.913446,16.418499,map,Dynestad,516e27bf62bfea195a00ff5a
Meteora,Tríkala,Greece,39.720095,21.619787,map,Meteora,516ce980bdc0f71fdd000058
Falkberget,Piteå,Sweden,65.385505,21.356392,map,Falkberget,516e621c62bfea195a022011
"Sea Gully, Tung Lung Chau",null,null,null,null,add,,
Monsummano,Pistoia,Italy,43.863743,10.828056,map,Monsummano,516d677abdc0f71fdd047af7
Villanueva del Rosario,Málaga,Spain,37.005843,-4.337608,map,Villanueva Del Rosario,516d1ec8bdc0f71fdd0239b0
Sella - Hidden Valley,Costa Blanca,Spain,38.619099,-0.2189,map,Sella,516d1ec8bdc0f71fdd023931
Nago,Arco,Italy,45.86781,10.896506,map,Arcos,516e08e562bfea195a00007f
Summertime,Kalymnos,Greece,37.016672,26.951694,map,Kalymnos,516d4ae8bdc0f71fdd03b81a
Kunna,Bodø,Norway,66.929001,13.5626,map,Kunna,516e3f5762bfea195a01777f
Ozone,Gresham,"OR, USA",45.566528,-122.210283,map,Ozone,516cf536bdc0f71fdd0073b9
Glendasan,Dún Laoghaire,Ireland,53.022451,-6.354818,added,Glendasan,559df3518f567841412327de
Gorge de la Jonte,Montpellier,France,44.212233,3.275196,added,Gorge de la,559df352c75b5c07241f572c
Country: Malta,null,null,null,null,add,,
La Calanque d’En Vau,Marseille,France,43.202048,5.501378,added,La Calanque d’En,559df3523e3e71af3ce006ca
Halong Bay,Uông Bí,Viet Nam,20.888966,106.90971,added,Halong Bay,559df3523e3e71af3ce006cb
Apremont Bizons,Fontainebleau,France,48.435699,2.62112,map,Fontainebleau,516d4ae7bdc0f71fdd03b6da
"Oak Creek Canyon, Red Rocks NV",null,null,null,null,add,,
Misja Pec,Trieste,Italy,45.566888,13.862574,map,Trieste,516d677abdc0f71fdd047c06
Käringberget,Linköping,Sweden,58.305611,15.845804,added,Käringberget,559df3523e3e71af3ce006cc
Oliana,Barcelona,Spain,42.075912,1.286884,map,Oliana,516d1ec8bdc0f71fdd02394a
Cedar Mountain,Cody,USA,44.508534,-109.132267,map,"Cedar Mtn, Cody",516cf537bdc0f71fdd0074b2
Telendos,Kalymnos,Greece,37.00149,26.92204,map,Kalymnos,516d4ae8bdc0f71fdd03b81a
Three Sisters,Denver,"CO, USA",39.624069,-105.353093,map,Three Sisters,516cf537bdc0f71fdd0074f1
Jaizkibel,San Sebastián,Spain,43.3652,-1.83863,map,Jaizkibel,516d1ec8bdc0f71fdd0238d0
"Lehn, Interlaken",Thun,Switzerland,46.688176,7.825157,map,Lehn,516e14ce62bfea195a006c38
Marvik,Stavanger,Norway,59.425893,6.094022,map,Marvik,516e3f5a62bfea195a0177b9
"Way Lake, Mammoth",Fresno,"CA, USA",37.584038,-118.997555,map,Way Lake,516cf537bdc0f71fdd00749e
Črni Kal,Trieste,Italy,45.55215,13.880901,map,Trieste,516d677abdc0f71fdd047c06
Kawakawa Bay,Taupo,New Zealand,-38.664603,175.868111,map,Kawakawa Bay,516e681d62bfea195a023071
Cinque Torri,Bolzano - Bozen,Italy,46.509056,12.051567,map,Cinque Torri,516d677abdc0f71fdd047b4f
Montagu,Worcester,South Africa,-33.792844,20.106697,map,Montagu,516dbb38a115619246000069
Viñales,Pinar Del Río,Cuba,22.6229,-83.717697,map,Viñales,516e818162bfea195a02bd9e
Mangaokewa,Hamilton,New Zealand,-38.360604,175.196443,map,Mangaokewa,516e681d62bfea195a023062
Vgethi,Athens,Greece,37.801621,24.006371,map,Athens,516ce980bdc0f71fdd00006b
Kvam,Fardal,Norway,61.260825,7.138452,map,Kvam,516e3f5a62bfea195a01778a
Forada,Alicante,Spain,38.501111,-0.673581,map,Forada,516d1ec8bdc0f71fdd02394c
The tunnel,null,null,null,null,map,The Tunnel,516cf536bdc0f71fdd007437
Baring Head,Wellington,New Zealand,-41.409599,174.869771,map,Baring Head,516e681d62bfea195a02304f
Mallorca - Tijuana,Mallorca,Spain,39.326795,3.170586,map,Mallorca,516d1ec8bdc0f71fdd02392b
Lindentälli,Bern,Switzerland,46.984966,7.555075,map,Lindental,516e14ce62bfea195a006ccd
"Opoul, Gratounette",Perpignan,France,42.861118,2.845802,added,Opoul,559df3528f567841412327df
The Dewerstone,Plymouth,United Kingdom,50.454102,-4.06653,added,The Dewerstone,559df352c75b5c07241f572d
Mizugaki,Kōfu,Japan,35.896323,138.573944,map,Mizugaki,516e7ee262bfea195a02b667
Whipps Ledges,Cleveland,"OH, USA",41.218808,-81.705451,added,Whipps Ledges,559df3533e3e71af3ce006cd
Ibex,null,null,38.992563,-113.387685,map,Ibex,516cf537bdc0f71fdd0074a5
Harmanecká jaskyňa,Banská Bystrica,Slovakia,48.819319,19.039671,added,Harmanecká jaskyňa,559df3533e3e71af3ce006ce
Benaoján,Marbella,Spain,36.716845,-5.25036,map,Benaojan,516d1ec8bdc0f71fdd023a77
